City_ID,City,Lat,Lng,Max Temp,Humidity,Cloudiness,Wind Speed,Country,Date
0,sipalay,9.75,122.5,85.75,71,100,2.95,PH,1718007936
1,thompson,55.7435,-97.8558,35.76,87,0,0.0,CA,1718007936
2,kerikeri,-35.2268,173.9474,54.91,90,73,2.73,NZ,1718007936
3,kruisfontein,-34.0033,24.7314,61.88,48,1,6.4,ZA,1718007936
4,vorgashor,67.5833,63.95,35.8,96,100,6.98,RU,1718007936
5,klyuchi,52.2667,79.1667,88.38,37,66,1.28,RU,1718007937
6,altay,47.8667,88.1167,82.74,32,20,6.04,CN,1718007937
7,sorong,-0.8833,131.25,82.36,77,100,3.53,ID,1718007937
8,kharan,28.5833,65.4167,99.81,5,0,3.56,PK,1718007937
9,port-aux-francais,-49.35,70.2167,38.17,71,11,36.24,TF,1718007937
10,thunder bay,48.4001,-89.3168,37.38,93,0,3.44,CA,1718007937
11,bethel,41.3712,-73.414,59.49,84,0,1.01,US,1718007807
12,waitangi,-43.9535,-176.5597,55.81,97,56,3.0,NZ,1718007937
13,avarua,-21.2078,-159.775,71.65,64,61,6.91,CK,1718007938
14,isafjordur,66.0755,-23.124,39.24,87,100,2.3,IS,1718007938
15,grytviken,-54.2811,-36.5092,19.27,76,21,8.99,GS,1718007938
16,bulawayo,-20.15,28.5833,55.65,50,0,14.18,ZW,1718007938
17,ilulissat,69.2167,-51.1,33.82,80,100,10.36,GL,1718007938
18,lodja,-3.4833,23.4333,82.67,31,100,6.62,CD,1718007938
19,invercargill,-46.4,168.35,43.02,84,89,10.0,NZ,1718007938
20,chonchi,-42.6128,-73.8092,49.21,95,100,7.63,CL,1718007938
21,olonkinbyen,70.9221,-8.7187,29.52,92,97,16.13,SJ,1718007938
22,coquimbo,-29.9533,-71.3436,53.98,84,75,2.3,CL,1718007785
23,zharkent,44.1628,80.0,93.65,18,4,4.68,KZ,1718007939
24,yamada,39.4667,141.95,63.86,89,83,7.45,JP,1718007939
25,butte,39.6499,-121.5677,73.98,56,0,5.75,US,1718007939
26,barabai,-2.5833,115.3833,88.72,67,98,0.78,ID,1718007939
27,yellowknife,62.456,-114.3525,55.42,70,75,4.0,CA,1718007918
28,mulanje,-16.0316,35.5,67.42,61,9,11.12,MW,1718007939
29,carnarvon,-24.8667,113.6333,70.45,71,100,7.47,AU,1718007939
30,albany,42.6001,-73.9662,55.74,87,0,1.01,US,1718007885
31,longyearbyen,78.2186,15.6401,44.44,61,0,11.5,SJ,1718007940
32,puerto ayora,-0.7393,-90.3518,72.55,96,100,5.84,EC,1718007940
33,matamey,13.4231,8.4749,88.48,46,27,17.65,NE,1718007940
34,diffa,13.3154,12.6113,93.18,40,61,20.45,NE,1718007940
35,dzhetygara,52.1908,61.2006,69.17,61,88,10.07,KZ,1718007940
36,tura,25.5198,90.2201,91.62,62,33,7.14,IN,1718007940
37,hammerfest,70.6634,23.6821,55.85,62,0,9.22,NO,1718007940
38,iqaluit,63.7506,-68.5145,33.53,74,75,4.61,CA,1718007940
39,walvis bay,-22.9575,14.5053,63.09,47,94,5.17,NA,1718007941
40,hawaiian paradise park,19.5933,-154.9731,74.71,88,75,4.61,US,1718007941
41,adamstown,-25.066,-130.1015,72.01,78,57,13.87,PN,1718007941
42,port mathurin,-19.6833,63.4167,75.79,81,28,21.25,MU,1718007941
43,nova sintra,14.8667,-24.7167,73.72,82,2,21.7,CV,1718007941
44,kone,-21.0595,164.8658,72.12,87,12,2.1,NC,1718007941
45,ferkessedougou,9.6,-5.2,77.41,82,100,5.84,CI,1718007941
46,celestun,20.8667,-90.4,79.09,88,100,6.82,MX,1718007941
47,vadso,70.0744,29.7487,49.08,93,100,21.85,NO,1718007942
48,ushuaia,-54.8,-68.3,28.06,86,75,5.75,AR,1718007739
49,mizusawa,39.1333,141.1333,70.12,90,57,5.64,JP,1718007942
50,petropavlovsk-kamchatsky,53.0452,158.6483,61.39,75,40,13.0,RU,1718007942
51,puerto natales,-51.7236,-72.4875,34.3,99,100,2.55,CL,1718007942
52,tocopilla,-22.092,-70.1979,62.71,80,96,6.91,CL,1718007942
53,quatre cocos,-20.2078,57.7625,79.09,69,57,17.31,MU,1718007942
54,kuta,-8.7233,115.1723,84.15,79,20,16.11,ID,1718007942
55,kattivakkam,13.2167,80.3167,99.14,52,100,12.03,IN,1718007943
56,blackmans bay,-43.0167,147.3167,44.73,83,98,5.01,AU,1718007943
57,mugia,43.1041,-9.2179,59.92,75,1,22.64,ES,1718007943
58,constitucion,-35.3333,-72.4167,54.23,84,75,10.71,CL,1718007943
59,selfoss,63.9331,-20.9971,54.05,63,0,5.1,IS,1718007943
60,georgetown,5.4112,100.3354,93.13,58,20,9.22,MY,1718007943
61,casablanca,33.5928,-7.6192,70.14,73,75,2.3,MA,1718007744
62,fortuna,40.5982,-124.1573,53.94,96,100,8.05,US,1718007943
63,touros,-5.1989,-35.4608,75.15,88,31,11.56,BR,1718007943
64,ishigaki,24.3448,124.1572,84.33,89,75,9.22,JP,1718007944
65,nemuro,43.3236,145.575,51.01,96,100,17.47,JP,1718007944
66,cidreira,-30.1811,-50.2056,65.93,82,35,6.26,BR,1718007944
67,camocim,-2.9022,-40.8411,75.0,92,65,10.36,BR,1718007944
68,sao jose da coroa grande,-8.8978,-35.1478,76.96,82,15,11.21,BR,1718007944
69,ust-nera,64.5667,143.2,58.86,28,99,0.67,RU,1718007944
70,mezhdurechenskiy,59.6,65.9333,61.09,84,100,2.46,RU,1718007671
71,mana,5.6592,-53.7767,76.46,91,100,6.44,GF,1718007945
72,kalmunai,7.4167,81.8167,90.1,58,82,9.44,LK,1718007853
73,qaqortoq,60.7167,-46.0333,46.38,73,100,12.5,GL,1718007945
74,tazacorte,28.629,-17.9293,72.57,88,20,1.14,ES,1718007945
75,kapuskasing,49.4169,-82.4331,37.4,87,75,12.66,CA,1718007945
76,nuevo progreso,23.1667,-97.95,78.98,95,34,6.29,MX,1718007945
77,ljusdal,61.8288,16.0913,52.25,66,100,5.57,SE,1718007945
78,pailon,-17.65,-62.75,70.7,63,0,10.42,BO,1718007945
79,purpe,64.4803,76.6897,70.29,32,100,12.3,RU,1718007946
80,hamilton,39.1834,-84.5333,63.37,80,0,8.05,US,1718007839
81,wau,7.7029,27.9953,87.98,46,52,5.97,SS,1718007946
82,shimoda,34.6667,138.95,71.96,82,100,8.3,JP,1718007946
83,fale old settlement,-9.3852,-171.2468,83.32,78,54,18.7,TK,1718007946
84,margaret river,-33.95,115.0667,60.8,61,100,24.2,AU,1718007946
85,lihue,21.9789,-159.3672,76.24,73,0,14.97,US,1718007946
86,yuncheng,35.0231,110.9928,98.82,16,100,5.95,CN,1718007946
87,st. john's,47.5649,-52.7093,53.98,95,75,14.97,CA,1718007801
88,ubari,26.5921,12.7805,94.95,6,0,1.99,LY,1718007947
89,papatowai,-46.5619,169.4708,41.11,85,99,7.25,NZ,1718007947
90,papao,-17.75,-149.55,74.88,86,94,12.71,PF,1718007947
91,bredasdorp,-34.5322,20.0403,56.95,63,0,4.18,ZA,1718007947
92,pelabuhanratu,-6.9875,106.5514,82.53,83,36,2.1,ID,1718007947
93,gadzhiyevo,69.2551,33.3362,51.06,73,87,10.49,RU,1718007947
94,xinzo de limia,42.0635,-7.7246,57.49,87,51,2.55,ES,1718007911
95,pointe-noire,-4.7761,11.8635,78.87,78,20,5.75,CG,1718007948
96,whitby,54.4877,-0.615,51.01,83,73,13.0,GB,1718007948
97,nizhniy kuranakh,58.8353,125.4869,71.67,42,69,6.29,RU,1718007948
98,nogliki,51.8333,143.1667,58.33,84,100,1.99,RU,1718007948
99,callao,-12.0667,-77.15,64.42,82,100,5.75,PE,1718007948
100,kodiak,57.79,-152.4072,44.11,100,100,18.41,US,1718007948
101,stanley,54.868,-1.6985,51.78,83,40,11.5,GB,1718007948
102,masterton,-40.9597,175.6575,52.88,95,100,2.73,NZ,1718007948
103,saint-francois,46.4154,3.9054,64.42,73,20,5.75,FR,1718007949
104,eyl,7.9803,49.8164,92.23,42,27,28.32,SO,1718007949
105,atafu village,-8.5421,-172.5159,83.05,79,46,16.67,TK,1718007949
106,kenai,60.5544,-151.2583,53.69,74,100,9.22,US,1718007793
107,mitu,1.1983,-70.1733,71.2,98,100,0.49,CO,1718007949
108,fort abbas,29.1925,72.8536,108.79,14,12,8.25,PK,1718007949
109,kailua-kona,19.6406,-155.9956,80.56,88,100,4.61,US,1718007949
110,menzelinsk,55.7271,53.1026,75.22,43,4,10.0,RU,1718007949
111,oranjemund,-28.55,16.4333,69.39,35,61,22.19,NA,1718007950
112,edinburgh of the seven seas,-37.0676,-12.3116,52.83,66,98,24.56,SH,1718007950
113,gaomi,36.3833,119.7528,98.65,23,27,16.78,CN,1718007950
114,prado,-17.3411,-39.2208,76.48,61,100,4.81,BR,1718007840
115,polyarnyy,69.1989,33.4478,52.59,70,90,7.25,RU,1718007950
116,ribeira grande,38.5167,-28.7,67.77,68,20,10.0,PT,1718007950
117,puerto baquerizo moreno,-0.9,-89.6,71.19,92,68,8.39,EC,1718007950
118,ikom,5.9667,8.7063,80.26,85,73,1.57,NG,1718007950
119,ola,59.5833,151.2833,54.14,82,3,6.44,RU,1718007950
120,anadyr,64.75,177.4833,50.5,62,0,4.47,RU,1718007951
121,strezhevoy,60.7333,77.5889,73.96,24,7,7.0,RU,1718007951
122,harstad,68.799,16.5293,61.99,62,71,10.0,NO,1718007951
123,kilju,40.9642,129.3278,74.77,50,37,7.45,KP,1718007951
124,bengkulu,-3.8004,102.2655,84.99,69,30,6.93,ID,1718007951
125,khandyga,62.6667,135.6,59.7,68,100,5.3,RU,1718007951
126,utrik,11.2278,169.8474,83.21,81,62,17.98,MH,1718007951
127,vilyuysk,63.7553,121.6247,75.0,25,11,7.0,RU,1718007951
128,okahandja,-21.9833,16.9167,61.27,51,99,21.81,NA,1718007951
129,kapa'a,22.0752,-159.319,76.98,80,0,14.97,US,1718007952
130,vorkuta,67.5,64.0,36.1,96,100,4.0,RU,1718007952
131,port elizabeth,-33.918,25.5701,69.31,68,0,3.44,ZA,1718007952
132,monkey bay,-14.0728,34.9201,70.61,62,35,19.46,MW,1718007952
133,flying fish cove,-10.4217,105.6791,82.08,83,75,9.22,CX,1718007703
134,saint-die-des-vosges,48.2833,6.95,62.58,58,5,7.25,FR,1718007952
135,udachny,66.4167,112.4,70.45,32,41,10.71,RU,1718007952
136,puerto aysen,-45.4,-72.7,43.39,99,100,1.63,CL,1718007916
137,howick,-29.4779,30.2306,60.85,34,15,2.01,ZA,1718007953
138,jorpeland,59.0225,6.0408,53.15,94,98,10.22,NO,1718007953
139,dudinka,69.4058,86.1778,44.67,69,53,5.99,RU,1718007953
140,raton,36.9034,-104.4391,55.74,94,100,11.5,US,1718007953
141,boa vista,2.8197,-60.6733,76.98,94,40,0.0,BR,1718007953
142,lebu,-37.6167,-73.65,56.01,85,100,22.91,CL,1718007953
143,nadi,-17.8,177.4167,75.2,73,40,5.75,FJ,1718007954
144,qiancheng,27.185,109.7654,75.54,88,99,2.93,CN,1718007954
145,manaure,11.7751,-72.4445,82.2,81,100,15.77,CO,1718007954
146,tamandare,-8.7597,-35.1047,76.8,81,12,8.97,BR,1718007954
147,aleksandrovsk-sakhalinskiy,50.8975,142.1561,62.56,92,93,4.56,RU,1718007954
148,dan sadau,11.2962,6.4952,80.04,70,9,12.19,NG,1718007954
149,fuglafjordur,62.244,-6.814,39.67,83,100,24.9,FO,1718007954
150,port alfred,-33.5906,26.891,64.18,78,6,7.09,ZA,1718007954
151,quellon,-43.1167,-73.6167,49.75,94,100,17.16,CL,1718007874
152,wailua homesteads,22.0669,-159.378,75.63,80,0,14.97,US,1718007955
153,powell,40.1578,-83.0752,58.6,76,0,5.75,US,1718007751
154,tual,-5.6667,132.75,80.35,84,31,20.89,ID,1718007955
155,hermanus,-34.4187,19.2345,57.79,60,0,8.12,ZA,1718007685
156,benguela,-12.5763,13.4055,77.95,71,0,1.72,AO,1718007685
157,ad dabbah,18.05,30.95,105.06,8,12,11.99,SD,1718007955
158,stribro,49.7529,13.0041,64.87,70,100,3.69,CZ,1718007955
159,howrah,22.5892,88.3103,98.6,67,20,10.36,IN,1718007754
160,batticaloa,7.7102,81.6924,90.54,57,89,2.55,LK,1718007955
161,palmer,42.1584,-72.3287,57.22,75,0,10.36,US,1718007956
162,taber,49.8167,-112.1518,59.0,63,100,9.22,CA,1718007956
163,ortona,42.3496,14.4039,85.71,66,23,6.98,IT,1718007956
164,at taj,24.2049,23.2857,93.24,15,0,10.11,LY,1718007956
165,longmen,24.9597,118.0889,81.21,72,100,5.99,CN,1718007956
166,pimentel,-6.8367,-79.9342,64.69,82,0,13.8,PE,1718007956
167,aztec,36.8222,-107.9929,74.61,68,100,13.91,US,1718007957
168,timbuktu,16.7735,-3.0074,95.4,33,66,17.9,ML,1718007957
169,cabo san lucas,22.8909,-109.9124,70.9,81,0,12.53,MX,1718007727
170,yigo village,13.5361,144.8886,85.32,77,75,13.8,GU,1718007957
171,kabalo,-6.05,26.9167,82.2,34,6,12.1,CD,1718007957
172,pikalevo,59.5183,34.1664,61.72,40,21,7.09,RU,1718007957
173,ghadamis,30.1337,9.5007,101.88,6,39,16.13,LY,1718007957
174,veraval,20.9,70.3667,89.17,64,86,18.03,IN,1718007957
175,bilibino,68.0546,166.4372,55.67,42,100,0.94,RU,1718007958
176,chinde,26.8418,88.0763,81.1,62,24,5.37,NP,1718007958
177,hithadhoo,-0.6,73.0833,83.71,73,100,8.01,MV,1718007958
178,karratha,-20.7377,116.8463,77.11,37,0,9.19,AU,1718007958
179,arraial do cabo,-22.9661,-42.0278,70.86,82,97,18.92,BR,1718007958
180,tortoli,39.9256,9.6572,82.98,62,20,11.5,IT,1718007958
181,tchintabaraden,15.8969,5.7985,96.89,30,0,16.15,NE,1718007958
182,kununurra,-15.7667,128.7333,82.38,24,8,5.75,AU,1718007958
183,santa elena de uairen,4.6167,-61.1333,65.35,96,92,2.21,VE,1718007730
184,gisborne,-38.6533,178.0042,58.44,88,100,8.93,NZ,1718007959
185,san jose,37.3394,-121.895,58.78,83,0,1.99,US,1718007951
186,myitkyina,25.3833,97.4,98.2,43,56,3.78,MM,1718007959
187,luderitz,-26.6481,15.1594,73.18,34,7,10.11,NA,1718007959
188,oberwart,47.2897,16.206,68.9,85,98,3.62,AT,1718007959
189,hengchun,22.0042,120.7439,84.92,79,36,15.88,TW,1718007959
190,aras-asan,8.8908,126.3033,84.52,72,100,5.53,PH,1718007959
191,holualoa,19.6228,-155.9522,76.84,88,100,4.61,US,1718007959
192,guilin,25.2819,110.2864,84.31,94,100,3.22,CN,1718007757
193,tazovsky,67.4667,78.7,53.8,50,7,13.22,RU,1718007960
194,san jeronimo de juarez,17.1333,-100.4667,77.85,77,75,6.73,MX,1718007960
195,yabelo,4.8833,38.0833,66.99,61,76,8.75,ET,1718007960
196,puerto deseado,-47.7503,-65.8938,39.72,89,100,8.68,AR,1718007960
197,aasiaat,68.7098,-52.8699,32.49,81,95,11.77,GL,1718007960
198,afaahiti,-17.75,-149.2833,73.27,84,91,17.0,PF,1718007960
199,whitehorse,60.7161,-135.0538,56.17,41,20,13.8,CA,1718007960
200,sur,22.5667,59.5289,96.37,38,0,8.05,OM,1718007961
201,gamba,-2.65,10.0,76.82,77,10,6.38,GA,1718007961
202,monrovia,6.3005,-10.7969,78.57,86,99,1.32,LR,1718007961
203,lidkoping,58.5052,13.1577,58.17,82,61,10.16,SE,1718007744
204,mahriz,31.5917,54.4318,95.5,8,0,4.83,IR,1718007961
205,amboasary,-25.0333,46.3833,70.72,54,8,14.67,MG,1718007961
206,cabinuangan,7.6833,126.0333,85.78,78,100,1.16,PH,1718007961
207,muynoq,43.7683,59.0214,94.17,23,78,2.53,UZ,1718007961
208,wynyard,-41.0,145.7167,48.36,73,100,5.99,AU,1718007962
209,tralee,52.2704,-9.7026,52.05,82,75,4.61,IE,1718007894
210,tolanaro,-25.0319,46.9987,64.47,94,75,13.8,MG,1718007896
211,howard springs,-12.497,131.047,84.97,59,87,3.33,AU,1718007962
212,tremp,42.167,0.8949,64.67,76,100,2.77,ES,1718007962
213,pyt-yakh,60.7499,72.8582,73.65,27,100,7.25,RU,1718007962
214,freetown,8.484,-13.2299,81.48,80,100,3.27,SL,1718007962
215,tiksi,71.6872,128.8694,36.25,84,41,8.43,RU,1718007962
216,port moresby,-9.4431,147.1797,80.02,83,40,17.27,PG,1718007963
217,fort-shevchenko,44.5086,50.263,84.76,39,86,12.48,KZ,1718007963
218,fort bragg,35.139,-79.006,70.83,90,100,8.05,US,1718007963
219,kudymkar,59.0173,54.656,66.72,49,100,11.27,RU,1718007963
220,santiago de cao,-7.9589,-79.2392,62.73,88,100,5.75,PE,1718007963
221,bardai,11.65,7.2333,79.92,65,5,18.12,NG,1718007963
222,vilyuchinsk,52.9306,158.4028,62.87,73,100,6.76,RU,1718007963
223,gulf shores,30.246,-87.7008,82.0,79,0,5.75,US,1718007963
224,lewistown,40.5992,-77.5714,57.16,100,28,4.7,US,1718007963
225,bamboo flat,11.7,92.7167,82.49,83,100,10.36,IN,1718007964
226,olyokminsk,60.3736,120.4264,73.47,38,98,2.17,RU,1718007964
227,college,64.8569,-147.8028,69.78,51,75,0.0,US,1718007964
228,saint-philippe,-21.3585,55.7679,80.19,82,46,13.35,RE,1718007964
229,kabansk,52.0486,106.6528,62.82,86,100,9.8,RU,1718007964
230,susuman,62.7833,148.1667,50.99,36,95,1.99,RU,1718007964
231,san patricio,28.017,-97.5169,84.09,91,3,7.11,US,1718007964
232,awjilah,29.1081,21.2869,91.29,17,0,1.05,LY,1718007964
233,kristiansund,63.1115,7.732,53.65,87,75,8.05,NO,1718007964
234,mgandu,-5.95,34.1333,70.61,46,33,12.41,TZ,1718007965
235,takestan,36.0696,49.6959,86.13,15,99,8.88,IR,1718007965
236,iskateley,67.6803,53.1512,41.02,60,98,7.0,RU,1718007670
237,pisco,-13.7,-76.2167,62.65,88,100,2.3,PE,1718007842
238,springs,-26.25,28.4,55.35,70,0,3.38,ZA,1718007965
239,port douglas,-16.4833,145.4667,69.48,75,93,8.46,AU,1718007965
240,coahuayana de hidalgo,18.7,-103.6583,72.36,89,53,3.15,MX,1718007965
241,port saint john's,-31.6229,29.5448,67.23,43,5,4.27,ZA,1718007966
242,el porvenir,13.7617,-87.3458,74.53,95,100,2.06,HN,1718007966
243,portalegre,39.2938,-7.4312,61.18,80,100,2.93,PT,1718007966
244,saudarkrokur,65.7461,-19.6394,38.79,81,100,0.16,IS,1718007966
245,uturoa,-16.7333,-151.4333,77.31,82,97,18.21,PF,1718007966
246,new norfolk,-42.7826,147.0587,45.9,81,78,2.35,AU,1718007966
247,shadrinsk,56.0852,63.6335,68.5,65,77,13.31,RU,1718007966
248,west island,-12.1568,96.8225,84.18,79,40,12.66,CC,1718007967
249,sola,-13.8833,167.55,80.35,85,97,15.03,VU,1718007967
250,badger,64.8,-147.5333,69.71,54,20,0.0,US,1718007967
251,kalemie,-5.9475,29.1947,75.97,53,4,16.02,CD,1718007967
252,bubaque,11.2833,-15.8333,79.72,81,53,9.28,GW,1718007967
253,zaigrayevo,51.8336,108.2703,74.95,41,96,16.87,RU,1718007967
254,jindabyne,-36.4167,148.6333,42.57,75,44,3.0,AU,1718007968
255,pudozh,61.8099,36.5345,56.95,76,100,7.0,RU,1718007968
256,cochin,9.9399,76.2602,87.78,77,100,10.71,IN,1718007968
257,kudahuvadhoo,2.6708,72.8944,83.7,72,59,11.39,MV,1718007968
258,sawakin,19.1059,37.3321,103.89,30,0,5.82,SD,1718007968
259,yuanlin,30.4151,112.8859,86.97,55,81,7.72,CN,1718007968
260,tremonton,41.7119,-112.1655,65.71,56,0,8.05,US,1718007968
261,choibalsan,48.0667,114.5,85.78,23,62,3.91,MN,1718007969
262,bathsheba,13.2167,-59.5167,83.01,83,75,20.71,BB,1718007969
263,santiago de la pena,20.95,-97.4,79.99,95,45,2.17,MX,1718007969
264,ambovombe,-25.1667,46.0833,69.08,56,50,18.14,MG,1718007969
265,am timan,11.0297,20.2827,80.67,57,100,7.58,TD,1718007969
266,jamestown,42.097,-79.2353,54.99,100,100,4.61,US,1718007969
267,lata,40.1629,-8.3327,67.08,82,100,2.91,PT,1718007970
268,yuzhno-kurilsk,44.0306,145.8556,52.38,93,100,7.43,RU,1718007970
269,port lincoln,-34.7333,135.8667,66.54,41,100,21.36,AU,1718007970
270,punta arenas,-53.15,-70.9167,32.11,93,100,4.61,CL,1718007850
271,talnakh,69.4865,88.3972,44.2,87,98,0.34,RU,1718007970
272,belfast,54.5833,-5.9333,54.37,64,20,19.57,GB,1718007735
273,codrington,-38.2667,141.9667,57.33,62,100,14.83,AU,1718007971
274,kralendijk,12.15,-68.2667,84.18,79,75,17.27,BQ,1718007971
275,san antonio de pale,-1.4014,5.6325,75.9,81,53,12.57,GQ,1718007971
276,khangah dogran,31.8317,73.6231,110.52,8,0,7.43,PK,1718007971
277,qarqaraly,49.4058,75.4742,83.59,31,100,17.13,KZ,1718007971
278,tidjikja,18.5564,-11.4271,92.25,28,33,3.76,MR,1718007971
279,makubetsu,45.3714,141.8211,62.31,82,75,14.97,JP,1718007971
280,eirunepe,-6.6603,-69.8736,72.7,99,73,1.32,BR,1718007971
281,urangan,-25.3,152.9,65.19,70,0,5.99,AU,1718007971
282,shalqar,47.8333,59.6,83.57,29,100,12.28,KZ,1718007848
283,namtsy,62.7161,129.6658,72.18,24,14,6.2,RU,1718007972
284,menaka,15.9182,2.4022,96.15,34,4,20.89,ML,1718007972
285,oban,56.4127,-5.4706,52.38,71,40,14.97,GB,1718007972
286,saint albans,51.75,-0.3333,52.3,89,75,17.27,GB,1718007972
287,lethem,3.3803,-59.7968,74.52,91,98,3.69,GY,1718007973
288,labrador city,52.9463,-66.9114,57.18,77,75,6.91,CA,1718007973
289,vernon,50.2581,-119.2691,66.81,87,85,2.89,CA,1718007973
290,mawlamyinegyunn,16.3833,95.2667,79.41,90,100,14.79,MM,1718007973
291,enewetak,11.3474,162.3373,82.83,83,97,16.49,MH,1718007973
292,berdigestyakh,62.0989,126.6992,76.35,20,19,7.52,RU,1718007973
293,ketchikan,55.3422,-131.6461,50.47,40,100,5.75,US,1718007973
294,valparaiso,-33.0393,-71.6273,59.0,77,40,6.91,CL,1718007839
295,terrace,54.5163,-128.6035,57.11,71,75,18.41,CA,1718007974
296,kodinsk,58.6881,99.1844,68.43,48,100,4.29,RU,1718007974
297,beledweyne,4.7358,45.2036,90.01,37,64,21.41,SO,1718007974
298,bintulu,3.1667,113.0333,88.21,79,40,5.75,MY,1718007974
299,grand falls-windsor,48.9332,-55.6649,50.5,95,82,4.97,CA,1718007974
300,hadibu,12.65,54.0333,86.97,66,38,22.37,YE,1718007975
301,fort st. john,56.2499,-120.8529,44.49,93,75,5.75,CA,1718007975
302,gizo,-8.103,156.8419,83.5,79,96,6.87,SB,1718007975
303,ancud,-41.8697,-73.8203,50.54,93,100,14.2,CL,1718007975
304,homer,59.6425,-151.5483,53.49,61,100,6.91,US,1718007975
305,yeed,4.55,43.0333,84.54,43,3,23.73,SO,1718007975
306,alice springs,-23.7,133.8833,69.35,32,0,6.91,AU,1718007974
307,constantia,44.1833,28.65,86.7,59,86,16.06,RO,1718007975
308,trinity beach,-16.7888,145.6968,71.49,68,96,12.66,AU,1718007976
309,haiku-pauwela,20.9219,-156.3051,76.05,81,75,17.27,US,1718007976
310,amahai,-3.3333,128.9167,78.82,89,99,7.36,ID,1718007882
311,antofagasta,-23.65,-70.4,58.28,87,24,4.65,CL,1718007976
312,vila velha,-20.3297,-40.2925,62.55,94,0,2.3,BR,1718007965
313,markaz-e hukumat-e darweshan,31.1323,64.1934,102.4,5,0,6.24,AF,1718007976
314,al 'amarah,31.8406,47.1396,112.42,12,10,16.51,IQ,1718007977
315,katsuura,35.1333,140.3,73.42,81,100,9.8,JP,1718007977
316,jayapura,-2.5333,140.7,85.39,84,31,5.28,ID,1718007977
317,hobyo,5.3505,48.5268,87.84,49,35,24.7,SO,1718007977
318,porto novo,6.4965,2.6036,83.77,74,72,7.81,BJ,1718007977
319,aioun,16.6614,-9.6149,96.31,27,84,12.53,MR,1718007977
320,crane,31.3974,-102.3501,73.08,73,54,18.92,US,1718007977
321,port shepstone,-30.7414,30.455,65.26,44,5,6.2,ZA,1718007977
322,pacific grove,36.6177,-121.9166,57.22,89,100,10.36,US,1718007978
323,totness,5.8833,-56.3167,77.86,86,92,4.97,SR,1718007978
324,ternate,0.8,127.4,83.16,75,100,2.93,ID,1718007784
325,westport,41.1415,-73.3579,62.74,80,0,5.75,US,1718007978
326,al burayqah,30.4062,19.5739,81.95,41,0,2.33,LY,1718007978
327,mahina,-17.5065,-149.489,74.97,88,75,3.44,PF,1718007978
328,syktyvkar,61.6764,50.8099,65.93,48,40,11.18,RU,1718007978
329,corfu,39.62,19.9197,85.82,61,0,8.05,GR,1718007978
330,aral,40.5156,81.2636,92.44,14,99,13.13,CN,1718007979
331,greymouth,-42.4667,171.2,51.28,85,100,6.76,NZ,1718007979
332,conneaut,41.9476,-80.5542,57.65,82,7,7.83,US,1718007979
333,saldanha,-33.0117,17.9442,69.85,46,0,12.88,ZA,1718007979
334,lubbock,33.6001,-101.8338,66.45,94,100,13.8,US,1718007979
335,labytnangi,66.6572,66.4183,68.38,49,100,3.62,RU,1718007796
336,barentu,15.1139,37.5928,84.76,45,10,8.84,ER,1718007979
337,saint-pierre,-21.3393,55.4781,80.28,65,20,19.57,RE,1718007979
338,ugoofaaru,5.6667,73.0,84.15,77,96,17.69,MV,1718007980
339,klaksvik,62.2266,-6.589,40.12,80,100,27.67,FO,1718007980
340,wanning,18.8003,110.3967,86.86,73,42,11.23,CN,1718007980
341,usinsk,65.9939,57.5281,45.07,92,100,13.0,RU,1718007850
342,visakhapatnam,17.69,83.2093,94.89,55,40,16.11,IN,1718007754
343,knoxville,35.9606,-83.9207,62.8,96,100,1.99,US,1718007980
344,suva,-18.1416,178.4415,72.88,88,20,4.61,FJ,1718007980
345,lamarque,-39.423,-65.7021,49.71,58,56,8.43,AR,1718007980
346,la chevroliere,47.0912,-1.6097,58.95,77,100,4.61,FR,1718007981
347,salahonda,2.1019,-78.7217,79.14,86,100,18.07,CO,1718007981
348,ofunato,39.0717,141.7167,65.01,79,34,7.31,JP,1718007981
349,tobelo,1.7284,128.0095,84.97,72,39,3.53,ID,1718007981
350,falun,60.6036,15.626,50.41,82,100,3.15,SE,1718007975
351,rosa zarate,0.3333,-79.4667,72.55,96,100,2.55,EC,1718007981
352,metlili chaamba,32.2667,3.6333,86.94,22,36,12.66,DZ,1718007981
353,luanda,-8.8368,13.2343,77.0,78,75,4.61,AO,1718007961
354,crucecita,-28.95,-58.9833,64.29,82,45,6.76,AR,1718007981
355,pointe aux piments,-20.0628,57.5131,79.52,72,69,18.68,MU,1718007982
356,manadhoo,5.7667,73.3833,83.95,78,51,17.31,MV,1718007982
357,iwanai,42.9744,140.5089,64.11,91,86,3.38,JP,1718007982
358,hoemul-li,41.4339,129.67,73.42,57,20,5.48,KP,1718007982
359,oppdal,62.5943,9.6912,43.57,99,100,6.17,NO,1718007982
360,oneonta,42.4529,-75.0638,53.29,98,95,6.82,US,1718007982
361,nicoya,10.1483,-85.452,74.71,97,100,1.21,CR,1718007982
362,nagqu,31.5,92.0,48.9,58,100,8.39,CN,1718007983
363,east ballina,-28.8667,153.5833,55.8,62,0,12.55,AU,1718007983
364,egilsstadir,65.2653,-14.3948,42.71,70,75,3.44,IS,1718007983
365,seven pagodas,12.6264,80.1722,99.12,52,100,9.57,IN,1718007916
366,tan-tan,28.438,-11.1032,67.95,82,75,13.8,MA,1718007983
367,loukhi,66.0764,33.0381,50.11,94,100,6.33,RU,1718007983
368,hola,51.5377,23.1902,68.18,77,100,10.27,PL,1718007983
369,ironwood,46.4547,-90.171,41.56,100,0,0.0,US,1718007983
370,buka,40.8108,69.1986,99.72,14,75,5.46,UZ,1718007984
371,chadan,51.2833,91.5833,76.3,38,100,6.04,RU,1718007984
372,sao tome,0.3365,6.7273,77.13,82,99,9.64,ST,1718007984
373,chimore,-16.9833,-65.1333,67.55,82,17,1.88,BO,1718007984
374,chongwe,-15.3292,28.682,61.5,60,83,10.71,ZM,1718007984
375,victoria,22.2855,114.1577,89.96,83,91,8.99,HK,1718007946
376,el jadid,33.2549,-8.506,67.93,78,50,6.15,MA,1718007984
377,san julian,21.0167,-102.1667,69.53,49,74,6.96,MX,1718007985
378,barcelos,41.5388,-8.6151,68.92,68,45,2.91,PT,1718007841
379,yinchuan,38.4681,106.2731,90.12,14,100,13.02,CN,1718007985
380,lompoc,34.6391,-120.4579,57.02,91,100,10.36,US,1718007985
381,edmundston,47.3737,-68.3251,54.75,96,100,4.61,CA,1718007908
382,hilo,19.7297,-155.09,78.28,88,75,4.61,US,1718007985
383,la ronge,55.1001,-105.2842,43.05,93,20,3.44,CA,1718007985
384,nema,57.5067,50.5011,65.53,68,100,6.04,RU,1718007985
385,krasnobrodskiy,54.1581,86.4486,65.95,54,100,5.06,RU,1718007985
386,swan hill,-35.3378,143.5544,56.7,74,100,7.47,AU,1718007986
387,tashtyp,52.7939,89.8983,76.73,42,86,12.41,RU,1718007986
388,axim,4.8699,-2.2405,78.87,88,100,7.47,GH,1718007986
389,malango,-2.9627,119.9001,78.73,69,69,4.38,ID,1718007986
390,arica,-18.475,-70.3042,64.63,68,100,3.44,CL,1718007986
391,wamba,8.9333,8.6,77.38,82,94,3.31,NG,1718007986
392,liaoyang,41.2719,123.1731,89.92,26,100,16.87,CN,1718007987
393,rong kwang,18.339,100.3174,92.68,76,92,2.39,TH,1718007987
394,le touquet-paris-plage,50.5243,1.5857,57.18,82,100,14.97,FR,1718007987
395,varenikovskaya,45.1209,37.6417,84.52,35,4,9.06,RU,1718007987
396,yekaterinoslavka,50.3734,129.1139,75.02,37,32,9.22,RU,1718007987
397,palangkaraya,-2.2,113.8333,84.83,84,95,0.76,ID,1718007987
398,xilin hot,43.9667,116.0333,81.3,22,89,22.59,CN,1718007987
399,chikola,43.1906,43.9209,68.85,89,88,6.55,RU,1718007987
400,puerto leguizamo,-0.1934,-74.7819,70.95,99,100,0.36,CO,1718007988
401,brookings,44.3114,-96.7984,53.06,82,0,4.61,US,1718007740
402,altai,46.3722,96.2583,68.9,25,82,9.64,MN,1718007988
403,palikir - national government center,6.9248,158.1611,79.54,94,100,0.0,FM,1718007988
404,chul'man,56.8479,124.9104,68.27,40,91,5.99,RU,1718007988
405,hailar,49.2,119.7,77.36,37,100,16.49,CN,1718007988
406,antsiranana,-12.2787,49.2917,84.96,42,20,11.5,MG,1718007988
407,soto la marina,23.7667,-98.2167,78.35,88,13,2.37,MX,1718007988
408,east london,-33.0153,27.9116,67.14,55,0,5.75,ZA,1718007989
409,portland,45.5234,-122.6762,56.61,83,0,8.05,US,1718007722
410,carloforte,39.145,8.3058,69.21,80,0,10.11,IT,1718007989
411,kiliya,45.4552,29.2637,82.31,42,100,15.14,UA,1718007989
412,bodo,67.28,14.405,64.44,45,0,10.36,NO,1718007989
413,saint-joseph,-21.3667,55.6167,79.18,78,24,13.35,RE,1718007989
414,kittila,67.6647,24.8936,57.34,67,75,11.5,FI,1718007989
415,that phanom,16.9364,104.7104,86.02,70,100,10.49,TH,1718007989
416,kingston,17.997,-76.7936,83.35,79,20,16.11,JM,1718007989
417,chui,-33.6971,-53.4616,58.95,91,100,6.67,UY,1718007990
418,lerwick,60.1545,-1.1494,48.2,77,100,18.72,GB,1718007990
419,as sulayyil,20.4607,45.5779,106.05,8,6,7.99,SA,1718007990
420,sechura,-5.5569,-80.8222,66.47,79,99,12.55,PE,1718007990
421,happy valley-goose bay,53.3168,-60.3315,55.71,94,75,5.75,CA,1718007990
422,owase,34.0667,136.2,68.76,86,100,3.09,JP,1718007990
423,caleta olivia,-46.4393,-67.5281,43.25,89,100,6.64,AR,1718007990
424,sheopur,25.6667,76.7,110.88,13,31,10.09,IN,1718007991
425,les anglais,18.3054,-74.2197,76.42,79,100,7.07,HT,1718007991
426,salaga,8.5508,-0.5188,79.47,80,100,8.55,GH,1718007991
427,recani,31.2846,-4.2688,81.46,25,68,13.47,MA,1718007991
428,chifeng,42.2683,118.9636,69.08,60,65,41.14,CN,1718007991
429,belize city,17.4995,-88.1976,84.02,85,100,3.2,BZ,1718007991
430,aginskoye,51.1,114.53,66.94,58,97,11.65,RU,1718007991
431,mae chai,19.346,99.814,78.69,88,100,5.44,TH,1718007992
432,okhotsk,59.3833,143.3,45.66,81,33,5.93,RU,1718007992
433,belmonte,-15.8631,-38.8828,74.77,71,98,5.91,BR,1718007992
434,huarmey,-10.0681,-78.1522,63.23,89,51,5.44,PE,1718007992
435,manta,-0.95,-80.7333,70.47,89,99,8.52,EC,1718007959
436,juneau,58.3019,-134.4197,55.4,86,75,12.66,US,1718007948
437,tobol'sk,58.2,68.2667,55.6,86,100,5.99,RU,1718007992
438,reggane,26.7158,0.1714,100.83,8,97,7.81,DZ,1718007993
439,pesqueira,-8.3578,-36.6964,63.45,96,86,10.56,BR,1718007993
440,brigantine,39.4101,-74.3646,68.0,70,0,6.91,US,1718007993
441,viljoenskroon,-27.2084,26.9485,53.8,36,0,3.56,ZA,1718007993
442,la'ie,21.6477,-157.9253,80.56,79,99,7.0,US,1718007993
443,kolokani,13.5728,-8.0339,87.76,46,33,9.55,ML,1718007993
444,sabak bernam,3.7698,100.9879,86.11,77,82,4.76,MY,1718007993
445,makueni boma,-1.8041,37.6203,73.36,58,79,5.39,KE,1718007993
446,edson,53.5835,-116.4356,44.74,93,100,2.3,CA,1718007994
447,culebra,18.303,-65.301,84.24,88,100,4.0,PR,1718007994
448,cabedelo,-6.9811,-34.8339,74.07,83,29,13.04,BR,1718007969
449,villa gesell,-37.2639,-56.973,54.03,88,100,10.63,AR,1718007902
450,byron bay,-28.65,153.6167,55.71,71,0,9.4,AU,1718007994
451,tselinnoye,53.0833,85.6667,70.54,57,48,3.51,RU,1718007994
452,sausset-les-pins,43.3314,5.1043,70.12,56,0,23.02,FR,1718007994
453,salym,60.0625,71.4789,74.12,32,100,7.78,RU,1718007994
454,auki,-8.7676,160.7034,79.63,90,100,5.55,SB,1718007995
455,monteria,8.748,-75.8814,74.97,94,99,3.04,CO,1718007995
456,burang,30.25,81.1667,51.84,38,2,9.26,CN,1718007995
457,tokar,18.4254,37.729,106.14,22,1,18.81,SD,1718007995
458,estacion coahuila,32.1939,-115.0017,81.07,45,40,8.72,MX,1718007995
459,ellsworth,44.5434,-68.4195,53.53,97,0,0.0,US,1718007995
460,saint croix,17.7397,-64.7388,79.95,87,20,5.75,VI,1718007995
461,acarau,-2.8856,-40.12,75.45,89,64,12.55,BR,1718007995
462,keflavik,64.0049,-22.5624,48.63,71,0,9.22,IS,1718007995
463,west bay,19.3667,-81.4167,84.07,84,78,21.25,KY,1718007996
464,aykhal,66.0,111.5,73.87,24,88,9.33,RU,1718007996
465,hard bargain,26.3167,-77.5667,83.48,72,73,16.33,BS,1718007996
466,playa del ingles,27.7567,-15.5787,73.15,77,4,3.49,ES,1718007789
467,taltal,-25.4,-70.4833,58.1,78,27,4.0,CL,1718007996
468,al kharj,24.155,47.3346,108.18,7,0,11.81,SA,1718007996
469,topeka,39.0483,-95.678,62.8,86,0,10.36,US,1718007966
470,saipan,15.1355,145.701,88.5,70,40,13.8,MP,1718007996
471,san andres,12.5847,-81.7006,80.62,94,20,0.0,CO,1718007996
472,upington,-28.4478,21.2561,62.98,34,0,16.11,ZA,1718007997
473,long beach,33.767,-118.1892,65.37,87,100,3.44,US,1718007997
474,olinda,-8.0089,-34.8553,76.73,94,75,8.05,BR,1718007997
475,la roda,39.2167,-2.15,65.93,60,100,9.8,ES,1718007997
476,mount gambier,-37.8333,140.7667,58.6,60,100,10.49,AU,1718007997
477,torghay,49.6339,63.4981,79.25,49,66,14.76,KZ,1718007997
478,nenjiang,49.1833,125.2167,67.86,67,100,7.25,CN,1718007997
479,basey,11.2817,125.0683,82.31,84,100,1.95,PH,1718007997
480,margate,51.3813,1.3862,54.3,82,100,11.01,GB,1718007998
481,bloomfield,40.8068,-74.1854,65.86,68,0,9.22,US,1718007883
482,kiunga,-6.1219,141.2906,77.92,97,69,4.27,PG,1718007998
483,kavaratti,10.5669,72.642,82.51,84,100,17.6,IN,1718007998
484,gebeit,21.0667,36.3167,99.52,13,18,13.2,SD,1718007998
485,geraldton,-28.7667,114.6,64.81,82,75,6.91,AU,1718007998
486,dzhangala,49.2167,50.3333,87.87,32,100,6.33,KZ,1718007998
487,tukrah,32.5341,20.5791,86.45,26,0,3.62,LY,1718007998
488,kill devil hills,36.0307,-75.676,68.02,72,100,18.41,US,1718007998
489,dinghaicun,26.2847,119.7936,81.52,93,100,8.41,CN,1718007999
490,forster,-32.1667,152.5167,58.06,68,37,11.79,AU,1718007999
491,zhangye,38.9342,100.4517,87.8,9,100,6.13,CN,1718007731
492,yendi,9.4427,-0.0099,80.94,74,100,8.03,GH,1718007999
493,zaozersk,69.4005,32.4476,47.95,81,92,14.2,RU,1718007999
494,kappeln,54.6612,9.9313,60.13,72,100,16.13,DE,1718007999
495,humaita,-7.5061,-63.0208,72.95,71,100,0.45,BR,1718007999
496,solwezi,-12.1688,26.3894,65.91,50,5,10.0,ZM,1718008000
497,villazon,-22.0866,-65.5942,38.59,21,32,1.03,BO,1718008000
498,caleta de carquin,-11.0925,-77.6267,62.89,87,50,5.06,PE,1718008000
499,jardinopolis,-21.0178,-47.7639,56.62,88,0,0.0,BR,1718008000
500,newman,37.3138,-121.0208,66.29,70,0,7.0,US,1718008000
501,sitka,57.0531,-135.33,51.69,76,100,3.44,US,1718008000
502,katima mulilo,-17.5,24.2667,67.6,38,0,10.96,NA,1718008000
503,maceio,-9.6658,-35.7353,74.64,94,40,4.61,BR,1718007739
504,dedza,-14.3779,34.3332,59.67,52,83,10.6,MW,1718008001
505,macas,-2.3167,-78.1167,65.03,97,51,2.55,EC,1718008001
506,isangel,-19.55,169.2667,75.7,88,100,1.7,VU,1718008001
507,puerto armuelles,8.2833,-82.8667,81.09,72,100,4.0,PA,1718008001
508,gornopravdinsk,60.05,69.9,69.64,46,100,5.59,RU,1718007729
509,bereeda,11.8704,51.0579,94.55,50,6,6.58,SO,1718008001
510,nizhneangarsk,55.7833,109.55,51.01,58,100,1.99,RU,1718008002
511,fort mcmurray,56.7268,-111.381,49.59,87,100,8.05,CA,1718008002
512,kisi,9.0833,3.85,79.2,75,99,10.6,NG,1718008002
513,labuan,5.2767,115.2417,86.36,74,20,3.44,MY,1718008002
514,puerto ayacucho,5.6639,-67.6236,73.49,95,99,2.42,VE,1718008002
515,pangody,65.85,74.4859,69.6,41,100,19.6,RU,1718008002
516,luganville,-15.5333,167.1667,78.1,90,81,6.42,VU,1718008003
517,hassloch,49.3628,8.2581,65.71,42,56,6.64,DE,1718007947
518,nova vicosa,-17.8919,-39.3719,76.06,60,82,3.38,BR,1718008003
519,horta,38.5333,-28.6333,67.01,81,20,11.01,PT,1718008003
520,mantua,45.1667,10.7833,77.09,79,79,5.99,IT,1718008003
521,tofol,5.3248,163.0078,84.58,77,17,15.93,FM,1718008003
522,vila franca do campo,37.7167,-25.4333,64.89,99,99,5.14,PT,1718008003
523,ulaangom,49.9811,92.0667,78.85,31,85,10.25,MN,1718008004
524,rikaze,29.25,88.8833,75.69,15,6,2.95,CN,1718008004
525,minot air force base,48.4209,-101.3391,50.18,82,0,6.91,US,1718008004
526,norilsk,69.3535,88.2027,44.42,85,96,1.03,RU,1718008004
527,chandler,33.3062,-111.8412,87.35,21,0,6.91,US,1718007949
528,inhambane,-23.865,35.3833,76.98,53,20,17.27,MZ,1718008004
529,praia da vitoria,38.7333,-27.0667,66.76,77,40,5.82,PT,1718008004
530,erwin,36.1451,-82.4168,60.26,87,100,2.13,US,1718007913
531,talakan,50.3167,130.3667,73.09,42,90,5.01,RU,1718008005
532,yanchep,-31.55,115.6833,65.95,58,100,14.63,AU,1718008005
533,goba,7.0167,39.9833,67.41,47,56,7.29,ET,1718008005
534,saynshand,44.8824,110.1163,90.37,11,0,10.51,MN,1718008005
535,corn island,12.1694,-83.0418,84.13,76,100,4.72,NI,1718008005
536,elliot lake,46.3834,-82.6331,45.01,45,100,10.2,CA,1718008005
537,azna,33.6095,48.9307,89.42,15,96,9.78,IR,1718008005
538,akhty,41.4597,47.7312,71.22,60,11,5.82,RU,1718008005
539,carolina beach,34.0352,-77.8936,73.45,92,98,6.76,US,1718007712
540,barrouallie,13.2333,-61.2667,77.29,80,69,10.92,VC,1718008006
541,neiafu,-18.65,-173.9833,76.12,69,38,22.53,TO,1718008006
542,nizhniy odes,63.6445,54.856,62.74,46,35,11.23,RU,1718008006
543,umm kaddadah,13.6017,26.6876,92.35,34,29,10.67,SD,1718008006
544,belyy yar,53.6039,91.3903,73.29,40,0,6.71,RU,1718008006
545,berezovyy,51.6667,135.7,49.01,99,100,4.29,RU,1718008006
546,sumberpucung,-8.1586,112.4829,80.02,82,92,6.96,ID,1718007788
547,kyelang,32.5833,77.0333,43.47,76,96,4.92,IN,1718008006
548,mount pearl,47.5166,-52.7813,53.15,95,75,14.97,CA,1718008006
549,ulanhot,46.0833,122.0833,91.53,22,13,5.55,CN,1718008007
550,lorengau,-2.0226,147.2712,83.57,80,93,7.02,PG,1718008007
551,niort,46.3333,-0.3333,61.63,71,2,1.01,FR,1718008007
552,qamdo,31.1667,97.2333,72.01,22,83,5.95,CN,1718008007
553,salinopolis,-0.6136,-47.3561,78.75,87,100,10.96,BR,1718008007
554,chapel hill,35.9132,-79.0558,68.9,92,86,5.53,US,1718007902
555,kaoma,-14.7833,24.8,68.49,43,0,13.02,ZM,1718008007
556,illizi,26.4833,8.4667,98.4,6,2,19.22,DZ,1718008007
557,saint-gilles-croix-de-vie,46.6833,-1.9333,56.39,77,15,13.4,FR,1718008007
558,coxen hole,16.3244,-86.5366,83.48,84,20,6.91,HN,1718008008
559,ceelbuur,4.685,46.6176,89.67,43,41,24.02,SO,1718008008
560,balabac,7.9868,117.0645,86.92,65,100,3.27,PH,1718008008
561,new plymouth,-39.0667,174.0833,57.81,100,100,10.2,NZ,1718008008
562,sakaiminato,35.55,133.2333,76.93,78,75,9.22,JP,1718008008
563,panjakent,39.4952,67.6093,89.64,17,32,4.79,TJ,1718007711
564,alvorada,-12.48,-49.1247,68.0,57,88,3.71,BR,1718008009
565,luena,-11.7833,19.9167,67.96,40,77,10.54,AO,1718008009
566,king city,36.2127,-121.126,62.91,78,1,6.89,US,1718008009
567,kondoa,-4.9,35.7833,70.79,49,96,6.17,TZ,1718008009
568,kyakhta,50.3508,106.4494,73.2,41,99,18.32,RU,1718008009
569,narimanov,46.6927,47.8498,91.31,30,95,4.92,RU,1718008009
570,challakere,14.3167,76.65,79.52,67,100,26.87,IN,1718008009
571,gofitskoye,45.0792,43.0464,71.6,62,98,11.12,RU,1718008009
572,boende,-0.2167,20.8667,81.61,59,86,2.95,CD,1718008010
