City_ID,City,Lat,Lng,Max Temp,Humidity,Cloudiness,Wind Speed,Country,Date
0,puerto baquerizo moreno,-0.9,-89.6,71.11,92,62,9.31,EC,1718008686
1,punta arenas,-53.15,-70.9167,32.11,93,100,4.61,CL,1718008686
2,ushuaia,-54.8,-68.3,28.06,86,75,5.75,AR,1718008628
3,adamstown,-25.066,-130.1015,72.03,79,42,13.53,PN,1718008687
4,blackmans bay,-43.0167,147.3167,44.73,83,100,1.01,AU,1718008687
5,mangai,-4.05,19.5333,87.96,24,23,6.51,CD,1718008687
6,whitehorse,60.7161,-135.0538,56.17,41,20,13.8,CA,1718008687
7,tiksi,71.6872,128.8694,35.98,85,42,8.66,RU,1718008687
8,francisco sa,-16.4758,-43.4883,66.34,91,36,5.26,BR,1718008687
9,waitangi,-43.9535,-176.5597,55.81,97,61,5.01,NZ,1718008687
10,carnarvon,-24.8667,113.6333,70.54,69,100,8.86,AU,1718008687
11,atafu village,-8.5421,-172.5159,83.16,79,46,17.09,TK,1718008688
12,yellowknife,62.456,-114.3525,55.42,71,75,4.0,CA,1718008688
13,post,33.1909,-101.3782,65.97,84,100,12.3,US,1718008688
14,holmsund,63.706,20.3641,53.55,71,40,11.5,SE,1718008612
15,port-aux-francais,-49.35,70.2167,38.37,72,10,35.52,TF,1718008688
16,marquette,46.5333,-87.6335,47.34,73,34,5.99,US,1718008688
17,manosque,43.8288,5.7869,65.55,57,0,10.25,FR,1718008688
18,hamilton,39.1834,-84.5333,62.1,81,0,8.05,US,1718008654
19,puerto madero,14.7208,-92.4215,78.94,88,100,6.6,MX,1718008688
20,strelka,58.0728,93.0344,54.81,95,100,1.23,RU,1718008689
21,lingdong,46.5669,131.1453,66.34,69,98,6.71,CN,1718008689
22,longyearbyen,78.2186,15.6401,44.44,61,0,11.5,SJ,1718008689
23,araguaina,-7.1911,-48.2072,74.08,61,41,3.6,BR,1718008689
24,bardai,11.65,7.2333,83.26,58,5,16.17,NG,1718008689
25,pultusk,52.7025,21.0828,63.73,69,100,7.76,PL,1718008689
26,vilhena,-12.7406,-60.1458,64.22,60,3,3.33,BR,1718008689
27,necochea,-38.5473,-58.7368,49.78,84,100,9.19,AR,1718008689
28,bredasdorp,-34.5322,20.0403,60.6,56,0,5.19,ZA,1718008690
29,vernon,50.2581,-119.2691,66.81,87,74,1.77,CA,1718008608
30,yung shue wan,22.2333,114.1167,89.33,79,78,1.01,HK,1718008690
31,bjuv,56.0837,12.9191,59.99,72,75,16.11,SE,1718008690
32,quixada,-4.9714,-39.0153,68.11,94,64,2.66,BR,1718008690
33,west island,-12.1568,96.8225,84.18,79,40,12.66,CC,1718008690
34,bilibino,68.0546,166.4372,55.22,44,99,0.85,RU,1718008690
35,natal,-5.795,-35.2094,74.05,88,20,6.91,BR,1718008674
36,kerikeri,-35.2268,173.9474,54.91,92,82,1.01,NZ,1718008690
37,spassk-dal'niy,44.5978,132.8211,70.47,72,3,2.82,RU,1718008691
38,edinburgh of the seven seas,-37.0676,-12.3116,52.93,66,98,24.23,SH,1718008691
39,qaqortoq,60.7167,-46.0333,46.98,73,100,11.81,GL,1718008691
40,al wafrah,28.6392,47.9306,115.48,7,81,12.37,KW,1718008691
41,nova xavantina,-14.6667,-52.35,64.38,65,16,3.78,BR,1718008691
42,bloemhof,-27.6469,25.607,56.48,38,0,6.58,ZA,1718008691
43,padang,-0.9492,100.3543,89.65,70,73,4.38,ID,1718008691
44,abadan,30.3392,48.3043,107.55,29,82,6.91,IR,1718008691
45,boguchar,49.9358,40.545,83.73,41,7,5.97,RU,1718008692
46,lethbridge,49.7,-112.8186,63.09,76,75,8.05,CA,1718008692
47,port alfred,-33.5906,26.891,67.17,75,4,5.88,ZA,1718008692
48,kodiak,57.79,-152.4072,44.11,100,100,18.41,US,1718008692
49,changyon,38.2508,125.0961,79.11,63,100,3.62,KP,1718008692
50,les cayes,18.2,-73.75,78.12,88,100,5.57,HT,1718008692
51,glace bay,46.1969,-59.957,56.79,97,100,8.99,CA,1718008395
52,puerto ayora,-0.7393,-90.3518,71.55,96,100,6.02,EC,1718008550
53,vorgashor,67.5833,63.95,35.8,96,100,7.56,RU,1718008590
54,ilhabela,-23.7781,-45.3581,69.6,69,100,4.27,BR,1718008693
55,masterton,-40.9597,175.6575,52.88,96,100,1.68,NZ,1718008693
56,asaita,11.5636,41.4394,106.66,15,61,10.0,ET,1718008693
57,st. john's,47.5649,-52.7093,53.98,95,75,14.97,CA,1718008481
58,nemuro,43.3236,145.575,50.97,97,100,18.43,JP,1718008693
59,nar'yan-mar,67.6713,53.087,41.11,60,97,7.0,RU,1718008693
60,severobaykal'sk,55.65,109.3167,51.51,77,100,3.8,RU,1718008693
61,kavaratti,10.5669,72.642,82.85,84,100,17.2,IN,1718008694
62,utrik,11.2278,169.8474,82.98,81,61,19.91,MH,1718008694
63,georgetown,5.4112,100.3354,93.13,58,20,9.22,MY,1718008591
64,ancud,-41.8697,-73.8203,50.88,92,100,14.99,CL,1718008645
65,port mathurin,-19.6833,63.4167,75.94,81,23,20.74,MU,1718008694
66,kathmandu,27.7167,85.3167,89.82,43,20,10.36,NP,1718008679
67,fale old settlement,-9.3852,-171.2468,83.17,79,54,19.37,TK,1718008694
68,isafjordur,66.0755,-23.124,39.24,87,100,2.3,IS,1718008695
69,olonkinbyen,70.9221,-8.7187,29.44,94,98,16.06,SJ,1718008695
70,bandarbeyla,9.4942,50.8122,92.3,45,78,24.47,SO,1718008695
71,saudarkrokur,65.7461,-19.6394,40.3,78,100,0.94,IS,1718008695
72,grytviken,-54.2811,-36.5092,19.2,76,20,9.19,GS,1718008695
73,khovd,48.0056,91.6419,81.61,22,19,4.09,MN,1718008695
74,calvinia,-31.4707,19.776,60.62,39,0,4.61,ZA,1718008695
75,albany,42.6001,-73.9662,55.74,86,2,1.01,US,1718008696
76,nizhneudinsk,54.9076,99.0276,68.02,42,93,6.64,RU,1718008696
77,badger,64.8,-147.5333,69.71,55,20,0.0,US,1718008696
78,vila velha,-20.3297,-40.2925,62.55,94,0,2.3,BR,1718008491
79,sumbe,-11.2061,13.8437,78.69,72,5,4.25,AO,1718008696
80,tsengel,49.4783,100.8894,77.05,23,87,9.4,MN,1718008696
81,asan-maina village,13.4722,144.7165,86.72,78,0,13.8,GU,1718008696
82,abra pampa,-22.7205,-65.697,34.77,22,33,0.78,AR,1718008696
83,khandyga,62.6667,135.6,59.99,68,100,3.85,RU,1718008696
84,ta`u,-14.2336,-169.5144,80.29,72,100,27.13,AS,1718008697
85,bethel,41.3712,-73.414,59.49,84,0,5.82,US,1718008697
86,olyokminsk,60.3736,120.4264,74.97,36,76,2.35,RU,1718008697
87,thompson,55.7435,-97.8558,35.76,87,0,0.0,CA,1718008697
88,darwin,-12.4611,130.8418,85.05,48,0,3.44,AU,1718008697
89,codrington,-38.2667,141.9667,58.05,63,100,16.87,AU,1718008697
90,petropavlovsk-kamchatsky,53.0452,158.6483,61.39,75,40,13.0,RU,1718008697
91,kalmunai,7.4167,81.8167,88.12,62,88,12.1,LK,1718008697
92,krasnyy chikoy,50.3643,108.7512,67.44,64,81,9.31,RU,1718008697
93,iskateley,67.6803,53.1512,41.02,60,98,7.0,RU,1718008698
94,miquelon,47.0975,-56.3814,48.2,95,98,8.55,PM,1718008698
95,saint-pierre,-21.3393,55.4781,80.28,65,20,19.57,RE,1718008698
96,ghat,24.9647,10.1728,95.92,7,0,9.78,LY,1718008676
97,avarua,-21.2078,-159.775,71.65,64,48,6.91,CK,1718008698
98,rongelap,11.1635,166.8941,83.16,82,86,16.53,MH,1718008698
99,quellon,-43.1167,-73.6167,49.82,94,100,18.57,CL,1718008698
100,colonia,50.9333,6.95,61.59,69,0,6.91,DE,1718008698
101,cabo san lucas,22.8909,-109.9124,70.9,82,0,12.93,MX,1718008698
102,laojunmiao,39.8333,97.7333,79.57,12,100,21.09,CN,1718008699
103,flying fish cove,-10.4217,105.6791,82.08,89,100,9.22,CX,1718008699
104,gorontalo,0.5412,123.0595,81.91,87,100,3.49,ID,1718008699
105,invercargill,-46.4,168.35,43.02,84,91,8.99,NZ,1718008699
106,vallenar,-28.5708,-70.7581,56.59,76,90,0.78,CL,1718008699
107,verrettes,19.05,-72.4667,76.8,86,88,5.5,HT,1718008699
108,porto novo,6.4965,2.6036,85.66,69,70,8.55,BJ,1718008699
109,jamestown,42.097,-79.2353,54.99,100,100,4.61,US,1718008666
110,papatowai,-46.5619,169.4708,41.49,84,100,8.16,NZ,1718008699
111,kalix,65.853,23.1565,49.17,75,100,7.81,SE,1718008700
112,vereshchagino,58.0789,54.6557,70.25,47,94,12.59,RU,1718008700
113,san patricio,28.017,-97.5169,84.09,90,2,7.0,US,1718008700
114,takoradi,4.8845,-1.7554,81.21,82,99,9.26,GH,1718008700
115,belo jardim,-8.3356,-36.4242,64.24,99,78,4.99,BR,1718008700
116,arti,56.4234,58.5328,70.34,57,90,8.19,RU,1718008700
117,bela,25.9333,81.9833,116.96,7,0,11.52,IN,1718008700
118,margaret river,-33.95,115.0667,61.56,54,100,22.84,AU,1718008700
119,coquimbo,-29.9533,-71.3436,53.98,85,75,2.3,CL,1718008701
120,port saint john's,-31.6229,29.5448,70.0,40,5,3.04,ZA,1718008701
121,rikaze,29.25,88.8833,77.36,13,5,4.29,CN,1718008701
122,dryden,49.7833,-92.7503,48.49,76,20,3.44,CA,1718008701
123,ambovombe,-25.1667,46.0833,69.3,57,41,18.41,MG,1718008701
124,tual,-5.6667,132.75,80.38,84,30,20.09,ID,1718008701
125,hermanus,-34.4187,19.2345,63.73,55,0,7.49,ZA,1718008701
126,iqaluit,63.7506,-68.5145,33.53,74,75,4.61,CA,1718008484
127,zemio,5.0314,25.1361,85.55,51,96,5.23,CF,1718008702
128,mammoth lakes,37.6485,-118.9721,50.34,68,0,5.75,US,1718008443
129,horta,38.5333,-28.6333,67.01,81,20,9.22,PT,1718008702
130,kathu,7.9178,98.3332,78.62,77,100,16.06,TH,1718008702
131,windhoek,-22.5594,17.0832,64.11,51,64,1.99,NA,1718008702
132,lihue,21.9789,-159.3672,76.24,73,0,14.97,US,1718008702
133,kapa'a,22.0752,-159.319,76.98,80,0,14.97,US,1718008462
134,aasiaat,68.7098,-52.8699,32.65,80,91,9.89,GL,1718008702
135,manicore,-5.8092,-61.3003,74.19,90,79,0.13,BR,1718008702
136,karema,-6.8205,30.4389,78.3,48,6,13.6,TZ,1718008702
137,banda aceh,5.5577,95.3222,86.04,70,50,17.76,ID,1718008703
138,mata-utu,-13.2816,-176.1745,81.37,73,99,23.78,WF,1718008703
139,pavlovskaya sloboda,55.8156,37.0828,73.72,61,84,13.89,RU,1718008703
140,dudinka,69.4058,86.1778,44.67,69,43,5.99,RU,1718008703
141,picota,-6.9197,-76.3304,69.51,100,55,0.69,PE,1718008703
142,puerto natales,-51.7236,-72.4875,34.23,99,100,2.15,CL,1718008703
143,sinazongwe,-17.2614,27.4618,70.03,45,55,7.09,ZM,1718008703
144,ad dabbah,18.05,30.95,107.91,7,33,11.88,SD,1718008703
145,marsabit,2.3284,37.9899,74.88,49,37,16.64,KE,1718008703
146,hithadhoo,-0.6,73.0833,83.93,73,100,8.52,MV,1718008704
147,newman,37.3138,-121.0208,64.63,70,0,4.0,US,1718008704
148,ust-tsilma,65.441,52.1498,43.61,87,100,4.0,RU,1718008704
149,pacasmayo,-7.4006,-79.5714,63.75,87,100,7.29,PE,1718008704
150,al ghayzah,16.2079,52.176,91.26,65,75,12.93,YE,1718008704
151,rosarito,32.3333,-117.0333,62.53,83,77,2.35,MX,1718008704
152,ilulissat,69.2167,-51.1,33.82,80,100,10.36,GL,1718008705
153,laguna,38.421,-121.4238,65.95,76,0,5.75,US,1718008705
154,tolanaro,-25.0319,46.9987,64.47,94,75,13.8,MG,1718008705
155,raton,36.9034,-104.4391,55.74,94,100,11.5,US,1718008705
156,gilgit,35.9221,74.3087,75.63,25,11,3.6,PK,1718008705
157,luganville,-15.5333,167.1667,78.28,90,87,6.15,VU,1718008705
158,kapuskasing,49.4169,-82.4331,37.4,87,75,12.66,CA,1718008705
159,wailua homesteads,22.0669,-159.378,75.63,80,0,14.97,US,1718008705
160,tazovsky,67.4667,78.7,55.67,47,11,14.09,RU,1718008706
161,broome,42.2506,-75.833,53.98,96,100,6.91,US,1718008706
162,port lincoln,-34.7333,135.8667,63.01,54,100,4.47,AU,1718008706
163,armacao de buzios,-22.7469,-41.8817,66.25,85,77,15.9,BR,1718008706
164,anna regina,7.2644,-58.5077,77.68,90,100,10.04,GY,1718008706
165,kataysk,56.289,62.5841,71.65,56,86,9.78,RU,1718008706
166,bodo,67.28,14.405,64.44,45,0,10.36,NO,1718008497
167,pembroke,45.8168,-77.1162,48.18,91,100,10.13,CA,1718008423
168,kenda,23.2,86.5333,113.22,12,100,8.7,IN,1718008707
169,at taj,24.2049,23.2857,95.99,13,0,8.46,LY,1718008707
170,gallup,35.5281,-108.7426,69.64,30,0,11.5,US,1718008553
171,sirvintos,55.05,24.95,65.62,52,47,7.09,LT,1718008707
172,hawaiian paradise park,19.5933,-154.9731,74.71,87,75,4.61,US,1718008707
173,ust-nera,64.5667,143.2,58.62,28,99,0.56,RU,1718008707
174,geraldton,-28.7667,114.6,64.81,82,75,6.91,AU,1718008707
175,aldinga beach,-35.2793,138.4604,66.76,56,99,14.99,AU,1718008707
176,igarka,67.4667,86.5833,52.02,79,98,7.0,RU,1718008708
177,remire-montjoly,4.9167,-52.2667,75.24,94,100,0.0,GF,1718008521
178,brisas de zicatela,15.8369,-97.0419,81.52,79,100,6.15,MX,1718008708
179,poronaysk,49.2167,143.1167,47.75,98,100,9.98,RU,1718008708
180,buka,40.8108,69.1986,100.87,13,78,6.62,UZ,1718008708
181,ola,59.5833,151.2833,54.14,84,3,5.57,RU,1718008708
182,douz,33.4663,9.0203,92.16,28,15,24.32,TN,1718008708
183,nizhniy odes,63.6445,54.856,61.0,49,58,8.34,RU,1718008512
184,weno,7.4515,151.8468,82.35,94,100,5.75,FM,1718008709
185,maceio,-9.6658,-35.7353,74.64,94,40,4.61,BR,1718008655
186,likiep,9.8251,169.3107,83.48,81,30,17.13,MH,1718008709
187,fort bragg,35.139,-79.006,70.83,90,100,8.05,US,1718007963
188,ribeira grande,38.5167,-28.7,67.77,68,20,9.22,PT,1718008709
189,barra da estiva,-13.6261,-41.3269,60.89,96,100,4.9,BR,1718008709
190,akureyri,65.6835,-18.0878,42.73,81,100,5.75,IS,1718008709
191,port elizabeth,-33.918,25.5701,71.31,65,0,3.44,ZA,1718008710
192,bubaque,11.2833,-15.8333,79.77,81,47,8.05,GW,1718008710
193,kingston,17.997,-76.7936,83.35,79,20,16.11,JM,1718008358
194,tenenkou,14.4572,-4.9169,95.79,31,98,16.55,ML,1718008710
195,queenstown,-31.8976,26.8753,57.83,38,9,6.33,ZA,1718008710
196,altai,46.3722,96.2583,69.53,24,81,9.1,MN,1718008710
197,papao,-17.75,-149.55,74.88,85,96,10.92,PF,1718008710
198,bonthe,7.5264,-12.505,83.32,76,97,2.42,SL,1718008710
199,aiquile,-18.2041,-65.1807,51.53,60,14,3.58,BO,1718008710
200,antsiranana,-12.2787,49.2917,84.96,42,20,11.5,MG,1718008710
201,klyuchi,52.2667,79.1667,90.27,33,51,4.43,RU,1718008711
202,naze,28.3667,129.4833,74.32,82,100,4.32,JP,1718008711
203,vilyuchinsk,52.9306,158.4028,62.87,76,99,7.52,RU,1718008711
204,udachny,66.4167,112.4,70.45,32,61,11.23,RU,1718008711
205,dul'durga,50.6761,113.5931,63.66,73,98,6.62,RU,1718008711
206,westport,41.1415,-73.3579,62.58,80,0,5.75,US,1718008583
207,nova sintra,14.8667,-24.7167,74.01,82,3,19.33,CV,1718008711
208,nagqu,31.5,92.0,55.47,44,100,12.28,CN,1718008711
209,talnakh,69.4865,88.3972,44.2,86,96,1.07,RU,1718008712
210,port blair,11.6667,92.75,82.44,83,100,10.36,IN,1718008712
211,mournies,35.4764,24.0092,90.0,37,0,4.61,GR,1718008712
212,tymovskoye,50.8456,142.655,61.52,83,95,6.69,RU,1718008712
213,pontiac,42.6389,-83.2911,56.1,79,100,13.8,US,1718008712
214,greymouth,-42.4667,171.2,51.03,85,100,8.37,NZ,1718008712
215,mitsamiouli,-11.3847,43.2844,79.88,66,37,14.83,KM,1718008712
216,burao,9.5221,45.5336,87.51,33,55,25.41,SO,1718008712
217,barentu,15.1139,37.5928,87.33,39,8,7.02,ER,1718008712
218,larroque,-33.036,-59.0013,56.53,96,100,6.35,AR,1718008713
219,gorodovikovsk,46.0878,41.9335,78.22,55,100,5.19,RU,1718008713
220,khilok,51.3674,110.4676,65.57,70,54,8.28,RU,1718008713
221,sarupathar,26.1984,93.8094,98.82,51,54,2.28,IN,1718008713
222,huicungo,-7.2833,-76.8,70.38,97,86,1.25,PE,1718008713
223,guerrero negro,27.9769,-114.0611,59.61,92,24,10.31,MX,1718008713
224,dukuhturi,-6.9,109.0833,84.87,73,54,3.83,ID,1718008713
225,mochudi,-24.4167,26.15,55.99,37,21,9.1,BW,1718008713
226,chonchi,-42.6128,-73.8092,49.21,96,100,9.33,CL,1718008714
227,saint-denis,48.9167,2.3333,62.24,69,75,14.97,FR,1718008303
228,al mijlad,11.0333,27.7333,91.81,42,99,9.75,SD,1718008714
229,song cau,13.45,109.2167,83.53,82,63,7.99,VN,1718008714
230,newcastle,-32.9272,151.7765,60.82,72,27,8.05,AU,1718008473
231,enewetak,11.3474,162.3373,82.62,83,97,16.08,MH,1718008714
232,happy valley-goose bay,53.3168,-60.3315,55.71,94,75,5.75,CA,1718008714
233,qingquan,30.4511,115.2559,81.34,73,100,6.53,CN,1718008714
234,valparaiso,-33.0393,-71.6273,59.0,77,40,6.91,CL,1718008631
235,college,64.8569,-147.8028,69.78,52,75,0.0,US,1718008715
236,dunhua,43.3725,128.2425,73.98,60,31,4.7,CN,1718008715
237,zaporizhia,47.8167,35.1833,87.71,28,74,8.79,UA,1718008715
238,al kharijah,25.4514,30.5464,97.84,14,0,10.67,EG,1718008715
239,san antonio de pale,-1.4014,5.6325,76.05,81,58,12.68,GQ,1718008715
240,kruisfontein,-34.0033,24.7314,66.88,40,2,8.05,ZA,1718008715
241,kristiansund,63.1115,7.732,53.65,87,75,6.91,NO,1718008715
242,seven pagodas,12.6264,80.1722,99.16,54,98,12.55,IN,1718008716
243,jagalur,14.5333,76.35,77.34,73,100,24.56,IN,1718008716
244,alofi,-19.0595,-169.9187,71.49,60,40,10.36,NU,1718008716
245,micheweni,-4.9667,39.8333,78.44,79,65,19.73,TZ,1718008716
246,okhotsk,59.3833,143.3,44.82,83,29,5.14,RU,1718008716
247,nola,40.922,14.5329,80.19,70,30,9.4,IT,1718008716
248,tiszaalpar,46.8128,19.9984,79.09,55,100,8.84,HU,1718008716
249,bismarck,46.8083,-100.7837,54.81,82,0,9.22,US,1718008687
250,paita,-5.0892,-81.1144,65.44,83,90,11.9,PE,1718008716
251,yeppoon,-23.1333,150.7333,67.78,49,0,4.45,AU,1718008717
252,inverloch,-38.6333,145.7167,49.05,61,100,10.18,AU,1718008717
253,la ronge,55.1001,-105.2842,43.05,93,20,3.44,CA,1718008717
254,dano,11.15,-3.0667,85.93,61,100,10.83,BF,1718008717
255,sosnogorsk,63.6023,53.8817,62.55,47,60,11.01,RU,1718008717
256,bam,29.106,58.357,97.12,8,0,13.29,IR,1718008717
257,bel ombre,-4.6167,55.4167,87.64,66,20,12.66,SC,1718008717
258,batang,-6.4846,110.7083,86.88,70,85,9.93,ID,1718008717
259,lamu,-2.2717,40.902,81.61,71,62,19.44,KE,1718008717
260,acarau,-2.8856,-40.12,74.75,88,48,12.35,BR,1718008718
261,keelung,25.1283,121.7419,91.29,89,100,4.36,TW,1718008718
262,stanley,54.868,-1.6985,49.71,80,40,17.27,GB,1718008718
263,dhidhdhoo,6.8833,73.1,83.28,79,64,18.68,MV,1718008565
264,ankang,32.68,109.0172,90.66,38,100,3.49,CN,1718008718
265,urangan,-25.3,152.9,64.2,71,0,5.99,AU,1718008718
266,palikir - national government center,6.9248,158.1611,79.54,94,100,0.0,FM,1718008718
267,mahanoro,-19.9,48.8,69.22,80,100,12.08,MG,1718008718
268,la reforma,25.0833,-108.05,75.94,81,0,1.97,MX,1718008719
269,afaahiti,-17.75,-149.2833,73.27,83,94,14.67,PF,1718008719
270,ramadi,33.4226,43.3058,111.4,6,0,9.62,IQ,1718008719
271,misratah,32.3754,15.0925,89.46,30,60,9.64,LY,1718008719
272,robbah,33.2797,6.9098,89.24,12,12,5.93,DZ,1718008719
273,puerto san jose,13.9256,-90.8244,78.37,90,100,4.36,GT,1718008719
274,tura,25.5198,90.2201,90.97,64,33,6.62,IN,1718008719
275,laurel,39.0993,-76.8483,66.47,74,0,4.61,US,1718008719
276,cole harbour,44.6724,-63.4751,55.81,94,93,9.22,CA,1718008719
277,labrador city,52.9463,-66.9114,57.18,77,75,6.91,CA,1718008720
278,richards bay,-28.783,32.0377,69.67,43,0,8.55,ZA,1718008606
279,lebu,-37.6167,-73.65,55.89,85,100,23.44,CL,1718008720
280,salekhard,66.53,66.6019,68.4,49,100,8.99,RU,1718008645
281,amarante do maranhao,-5.5667,-46.7422,71.01,76,0,3.94,BR,1718008720
282,demba,-5.51,22.2667,87.21,23,71,7.81,CD,1718008720
283,mount isa,-20.7333,139.5,64.17,39,5,3.44,AU,1718008720
284,xinglongshan,43.9561,125.4661,82.15,34,0,13.42,CN,1718008720
285,arraial do cabo,-22.9661,-42.0278,70.23,83,98,16.55,BR,1718008689
286,waingapu,-9.6567,120.2641,79.63,69,0,14.88,ID,1718008720
287,monticello,45.3055,-93.7941,54.21,90,40,4.61,US,1718008203
288,lae,-6.7221,146.9847,83.07,83,73,5.23,PG,1718008721
289,vikulovo,56.8167,70.6107,63.05,94,100,11.25,RU,1718008721
290,cidreira,-30.1811,-50.2056,65.77,82,44,6.42,BR,1718008721
291,labasa,-16.4167,179.3833,71.33,82,100,7.72,FJ,1718008721
292,margate,51.3813,1.3862,53.91,82,100,11.01,GB,1718008721
293,al jawf,29.5,38.75,93.33,10,0,8.72,SA,1718008721
294,marka,1.7159,44.7717,84.31,63,82,19.48,SO,1718008722
295,moose jaw,50.4001,-105.5344,55.65,54,100,6.91,CA,1718008722
296,sorsk,54.0033,90.2467,67.39,41,9,12.97,RU,1718008722
297,fortuna,40.5982,-124.1573,53.94,96,100,8.05,US,1718008695
298,grand falls-windsor,48.9332,-55.6649,50.5,95,88,4.88,CA,1718008722
299,sena madureira,-9.0656,-68.6569,73.17,87,48,1.34,BR,1718008722
300,jombang,-7.546,112.2331,84.96,72,75,6.64,ID,1718008722
301,saipan,15.1355,145.701,88.5,70,40,13.8,MP,1718008722
302,shimoda,34.6667,138.95,71.96,85,100,7.9,JP,1718008723
303,karratha,-20.7377,116.8463,75.13,42,0,8.19,AU,1718008723
304,katsuura,35.1333,140.3,73.42,84,100,7.87,JP,1718008723
305,severo-yeniseyskiy,60.3725,93.0408,53.58,79,97,1.99,RU,1718008723
306,vadso,70.0744,29.7487,49.08,87,100,20.71,NO,1718008723
307,gun barrel city,32.3346,-96.1514,79.12,87,74,3.76,US,1718008723
308,glenfield park,-35.1372,147.334,45.59,78,79,2.33,AU,1718008723
309,sitka,57.0531,-135.33,51.69,76,100,3.44,US,1718008723
310,new norfolk,-42.7826,147.0587,45.9,83,78,2.59,AU,1718008723
311,vangaindrano,-23.35,47.6,67.77,75,89,9.19,MG,1718008724
312,dunedin,-45.8742,170.5036,45.81,83,84,15.01,NZ,1718008724
313,polyarnyy,69.1989,33.4478,53.98,67,84,8.99,RU,1718008724
314,asau,46.4333,26.4,79.29,38,37,5.46,RO,1718008724
315,magong,23.5654,119.5863,81.63,87,78,11.56,TW,1718008724
316,kani keli,-12.9536,45.1033,85.26,64,72,19.35,YT,1718008724
317,tete,-16.1564,33.5867,71.69,60,75,9.22,MZ,1718008724
318,pemangkat,1.1667,108.9667,85.06,75,100,6.38,ID,1718008725
319,sinop,41.7711,34.8709,77.43,36,3,5.99,TR,1718008725
320,mahajanga,-15.7167,46.3167,87.82,37,0,10.36,MG,1718008725
321,nova vicosa,-17.8919,-39.3719,76.19,59,89,2.86,BR,1718008661
322,praia da vitoria,38.7333,-27.0667,67.75,77,40,8.46,PT,1718008725
323,marsa alam,25.0757,34.8918,91.76,38,0,17.98,EG,1718008725
324,rio grande,-32.035,-52.0986,59.95,96,4,7.02,BR,1718008725
325,kabalo,-6.05,26.9167,85.62,30,5,11.14,CD,1718008725
326,la passe,45.5549,-0.8967,64.63,69,0,11.23,FR,1718008726
327,nishon tumani,38.694,65.6751,100.65,14,0,6.91,UZ,1718008726
328,cruzeiro do sul,-29.5128,-51.9853,68.5,98,30,4.38,BR,1718008726
329,taoudenni,22.6783,-3.9836,104.94,11,9,14.34,ML,1718008726
330,north platte,41.1239,-100.7654,61.38,81,0,8.01,US,1718008726
331,mao,39.8885,4.2658,72.16,83,40,10.36,ES,1718008726
332,taman',45.2117,36.7161,79.43,61,51,8.75,RU,1718008726
333,singkil,-7.9855,111.4161,83.64,75,86,6.8,ID,1718008726
334,hassi messaoud,31.6804,6.0729,94.86,16,4,6.91,DZ,1718008726
335,lata,40.1629,-8.3327,67.08,70,100,5.88,PT,1718008727
336,yamoussoukro,6.8206,-5.2767,76.89,88,100,4.61,CI,1718008727
337,hinton,53.4001,-117.5857,44.26,97,100,4.59,CA,1718008727
338,port douglas,-16.4833,145.4667,69.01,77,87,8.61,AU,1718008727
339,yaren,-0.5472,166.916,84.97,73,100,11.77,NR,1718008727
340,nadym,65.5333,72.5167,71.96,44,100,15.7,RU,1718008727
341,nadi,-17.8,177.4167,75.2,73,40,5.75,FJ,1718008727
342,ulsteinvik,62.3432,5.8487,55.76,84,99,5.99,NO,1718008727
343,quelimane,-17.8786,36.8883,69.75,83,75,8.55,MZ,1718008727
344,port pirie,-33.1833,138.0167,65.7,40,92,12.93,AU,1718008728
345,kill devil hills,36.0307,-75.676,67.98,74,100,19.57,US,1718008728
346,weining,26.85,104.2333,69.96,69,87,4.29,CN,1718008728
347,akita,39.7167,140.1167,74.34,64,75,6.91,JP,1718008514
348,soto la marina,23.7667,-98.2167,77.88,88,20,3.24,MX,1718008728
349,domsod,47.0901,19.0111,74.14,56,100,12.55,HU,1718008728
350,praya,14.9215,-23.5087,73.94,73,20,12.66,CV,1718008728
351,esperanza,19.5847,-70.9849,76.3,89,100,5.01,DO,1718008728
352,pandan,14.0453,124.1694,86.63,72,11,7.38,PH,1718008729
353,yarmouth,41.7057,-70.2286,62.01,87,75,7.0,US,1718008729
354,dali,25.7,100.1833,76.66,64,56,5.91,CN,1718008729
355,richlands,37.0932,-81.7937,55.36,75,96,3.29,US,1718008729
356,luis moya,22.4324,-102.2486,70.47,60,47,1.39,MX,1718008730
357,plesetsk,62.708,40.2916,63.46,61,100,9.01,RU,1718008730
358,bloemfontein,-29.1211,26.214,47.68,66,0,4.61,ZA,1718008676
359,madingou,-4.1536,13.55,82.8,62,40,2.39,CG,1718008730
360,luuq,3.7938,42.5445,90.7,35,12,21.36,SO,1718008730
361,aykhal,66.0,111.5,73.27,25,92,8.63,RU,1718008730
362,hadibu,12.65,54.0333,87.08,65,36,22.73,YE,1718008730
363,mejit,10.2753,170.8646,83.3,81,16,20.92,MH,1718008730
364,uturoa,-16.7333,-151.4333,77.61,80,98,17.2,PF,1718008730
365,palmer,42.1584,-72.3287,56.75,75,0,10.36,US,1718008571
366,alvorada,-12.48,-49.1247,67.14,58,84,4.21,BR,1718008595
367,grants pass,42.439,-123.3284,65.71,76,0,9.22,US,1718008731
368,haiku-pauwela,20.9219,-156.3051,76.05,81,75,17.27,US,1718008731
369,veraval,20.9,70.3667,89.11,66,73,18.54,IN,1718008731
370,hasaki,35.7333,140.8333,73.29,78,100,7.05,JP,1718008731
371,grevena,40.0845,21.4274,83.41,38,36,7.61,GR,1718008731
372,prince george,53.9166,-122.753,52.25,78,20,5.75,CA,1718008566
373,tazacorte,28.629,-17.9293,72.57,88,20,3.0,ES,1718008731
374,dalbandin,28.8947,64.4101,101.89,5,0,4.5,PK,1718008732
375,fisterra,42.9049,-9.2629,59.76,70,2,22.37,ES,1718008732
376,quatre cocos,-20.2078,57.7625,79.09,68,41,17.18,MU,1718008732
377,bafia,4.75,11.2333,75.9,90,99,2.28,CM,1718008732
378,kailua-kona,19.6406,-155.9956,80.56,88,100,4.61,US,1718008732
379,la ligua,-32.4524,-71.2311,57.2,70,100,1.83,CL,1718008732
380,shenkursk,62.1091,42.896,64.08,55,100,9.64,RU,1718008732
381,istgah-e rah ahan-e garmsar,35.2346,52.3094,101.84,6,0,13.47,IR,1718008732
382,cockburn town,21.4612,-71.1419,81.39,87,100,20.02,TC,1718008732
383,muar,2.0442,102.5689,89.64,67,85,2.24,MY,1718008733
384,pingliang,35.5392,106.6861,82.6,26,99,6.71,CN,1718008733
385,san martin,-33.081,-68.4681,50.54,50,72,8.68,AR,1718008733
386,kasongo-lunda,-6.4667,16.8167,86.2,22,78,5.66,CD,1718008733
387,karyes,37.3,22.5,73.06,27,32,5.53,GR,1718008733
388,anadyr,64.75,177.4833,50.5,62,0,4.47,RU,1718008733
389,alajarvi,63.0,23.8167,52.95,62,93,8.41,FI,1718008733
390,island harbour,50.724,-1.2758,57.22,76,76,5.99,GB,1718008733
391,shache,38.4167,77.2406,87.3,19,5,5.1,CN,1718008734
392,sao miguel do araguaia,-13.275,-50.1628,68.25,57,89,6.15,BR,1718008734
393,kas,36.2018,29.6377,88.61,39,0,7.85,TR,1718008734
394,scarborough,54.2797,-0.4044,51.66,84,81,7.0,GB,1718008566
395,nueva gerona,21.8833,-82.8,81.48,75,2,9.19,CU,1718008734
396,sangin,32.0728,64.8359,100.27,6,0,4.29,AF,1718008734
397,tarakan,3.3,117.6333,87.3,74,40,5.75,ID,1718008734
398,pacific grove,36.6177,-121.9166,57.22,89,100,10.36,US,1718008734
399,guajara mirim,-10.7828,-65.3394,71.42,72,6,2.28,BR,1718008735
400,portland,45.5234,-122.6762,56.28,83,0,8.05,US,1718008160
401,kone,-21.0595,164.8658,71.06,89,13,1.43,NC,1718008735
402,el porvenir,13.7617,-87.3458,74.53,95,100,2.19,HN,1718008735
403,xining,36.6167,101.7667,70.81,44,100,6.2,CN,1718008735
404,carutapera,-1.195,-46.02,74.77,96,100,6.06,BR,1718008735
405,aldan,58.6031,125.3894,66.18,48,70,10.04,RU,1718008735
406,tralee,52.2704,-9.7026,52.05,82,75,4.61,IE,1718008735
407,antalaha,-14.9003,50.2788,81.48,54,3,11.99,MG,1718008735
408,wanning,18.8003,110.3967,86.11,77,59,11.07,CN,1718008736
409,sabirabad,40.0095,48.4752,93.25,31,86,11.27,AZ,1718008736
410,usinsk,65.9939,57.5281,45.07,92,100,13.0,RU,1718008736
411,bhim tal,29.35,79.5667,87.1,7,0,12.1,IN,1718008736
412,madalena,41.2162,-8.3345,67.55,81,85,5.41,PT,1718008736
413,nacala,-14.5428,40.6728,82.35,45,49,15.84,MZ,1718008736
414,nuuk,64.1835,-51.7216,43.41,93,100,17.27,GL,1718008518
415,meadow lake,34.8014,-106.5436,66.67,57,100,0.87,US,1718008736
416,miguel ahumada,30.6167,-106.5167,70.68,28,4,3.0,MX,1718008736
417,canal fulton,40.8898,-81.5976,55.92,87,0,0.0,US,1718008737
418,labuan,5.2767,115.2417,86.36,74,20,3.44,MY,1718008737
419,banikoara,11.2985,2.4386,87.21,52,61,10.07,BJ,1718008737
420,opuwo,-18.0607,13.84,76.71,23,14,13.49,NA,1718008737
421,minas de marcona,-15.2119,-75.1103,51.24,91,90,5.64,PE,1718008737
422,iuna,-20.3458,-41.5358,56.25,97,17,3.94,BR,1718008737
423,palopo,-2.9996,120.1921,83.19,74,86,4.16,ID,1718008737
424,kolokani,13.5728,-8.0339,92.07,39,40,9.13,ML,1718008737
425,constantia,44.1833,28.65,86.7,57,85,16.96,RO,1718008526
426,vorkuta,67.5,64.0,36.1,96,100,4.0,RU,1718008738
427,quibdo,5.6947,-76.6611,74.98,98,99,2.44,CO,1718008738
428,alcantara,-2.4089,-44.4147,77.2,92,100,6.55,BR,1718008738
429,koz'modem'yansk,56.3367,46.5711,74.44,57,30,6.46,RU,1718008738
430,alice springs,-23.7,133.8833,69.35,32,0,6.91,AU,1718008738
431,ketchikan,55.3422,-131.6461,50.47,40,100,5.75,US,1718008539
432,howard springs,-12.497,131.047,84.97,61,67,4.83,AU,1718008739
433,kimbe,-5.5502,150.1429,79.92,89,100,2.89,PG,1718008739
434,bom jesus,-9.0744,-44.3586,63.61,87,18,0.96,BR,1718008739
435,borovskoy,53.8,64.15,66.78,70,96,13.35,KZ,1718008739
436,heihe,50.2441,127.4902,73.45,49,93,3.74,CN,1718008739
437,yaguaron,-25.6,-57.3,76.75,44,51,11.21,PY,1718008739
438,salinopolis,-0.6136,-47.3561,78.73,87,100,12.88,BR,1718008739
439,alesund,62.4723,6.1549,55.76,80,75,10.36,NO,1718008739
440,lompoc,34.6391,-120.4579,57.02,91,100,10.36,US,1718008740
441,broken hill,-31.95,141.4333,57.88,51,7,9.22,AU,1718008740
442,siwa oasis,29.2041,25.5195,91.71,21,0,5.64,EG,1718008740
443,santa vitoria do palmar,-33.5189,-53.3681,58.68,92,100,6.29,BR,1718008740
444,sur,22.5667,59.5289,96.01,40,0,10.94,OM,1718008740
445,al qadarif,14.0349,35.3834,89.47,42,70,14.54,SD,1718008740
446,astara,38.5,48.6667,80.58,60,98,6.76,AZ,1718008740
447,egilsstadir,65.2653,-14.3948,42.71,70,75,3.44,IS,1718008740
448,thunder bay,48.4001,-89.3168,37.38,93,0,3.44,CA,1718008628
449,nicoya,10.1483,-85.452,74.5,97,100,0.56,CR,1718008741
450,grand-lahou,5.1367,-5.0242,81.61,82,87,6.85,CI,1718008741
451,eregli,37.5133,34.0467,77.61,22,0,6.31,TR,1718008741
452,solwezi,-12.1688,26.3894,69.44,42,5,10.29,ZM,1718008741
453,sikasso,10.9167,-7.0,86.09,55,100,3.71,ML,1718008742
454,sao tome,0.3365,6.7273,77.81,80,94,8.99,ST,1718008742
455,borogontsy,62.6683,131.1683,68.7,32,12,5.28,RU,1718008742
456,powell,40.1578,-83.0752,58.3,76,0,5.75,US,1718008742
457,gadzhiyevo,69.2551,33.3362,51.64,72,80,12.8,RU,1718008742
458,gray,35.4167,-100.802,69.6,94,100,10.76,US,1718008742
459,kotlas,61.2611,46.6556,68.05,43,15,7.0,RU,1718008743
460,ballina,-28.8667,153.5667,54.79,64,0,13.82,AU,1718008743
461,general levalle,-34.0147,-63.9241,46.63,48,70,5.99,AR,1718008743
462,oroqen zizhiqi,50.5667,123.7167,67.91,61,97,5.17,CN,1718008743
463,riosucio,5.4216,-75.7032,60.01,99,100,1.7,CO,1718008743
464,puerto deseado,-47.7503,-65.8938,40.12,85,100,6.58,AR,1718008743
465,fria,10.4167,-13.5833,79.21,85,94,0.92,GN,1718008744
466,palasa,18.7667,84.4167,96.8,46,100,19.44,IN,1718008744
467,namest nad oslavou,49.2073,16.1585,67.44,88,100,4.61,CZ,1718008744
468,ciudad lazaro cardenas,17.9583,-102.2,77.77,77,100,2.71,MX,1718008744
469,zyrya,40.3661,50.2917,82.49,63,9,14.67,AZ,1718008744
470,ad dilam,23.9915,47.1627,108.01,7,0,10.18,SA,1718008744
471,daru,-9.0763,143.2092,78.69,88,57,16.84,PG,1718008744
472,la sarre,48.8002,-79.1996,35.11,96,100,12.62,CA,1718008497
473,puerto armuelles,8.2833,-82.8667,81.09,72,99,4.0,PA,1718008745
474,zouerate,22.7187,-12.4521,80.19,36,5,11.3,MR,1718008745
475,michurinsk,52.8978,40.4907,76.42,53,63,7.58,RU,1718008745
476,macau,22.2006,113.5461,87.71,84,40,8.05,MO,1718008627
477,mayfield,36.7417,-88.6367,59.74,97,0,3.44,US,1718008745
478,amahai,-3.3333,128.9167,78.46,89,99,7.07,ID,1718008745
479,santa cecilia,-26.9608,-50.4269,56.23,81,6,3.51,BR,1718008746
480,las palmas de gran canaria,28.0997,-15.4134,73.53,60,20,12.66,ES,1718008640
481,shingu,33.7333,135.9833,70.72,84,100,2.37,JP,1718008746
482,kamyzyak,46.11,48.0736,91.38,28,40,4.47,RU,1718008746
483,tanout,14.9709,8.8879,97.05,23,1,15.84,NE,1718008746
484,mil'kovo,55.6078,37.7956,72.3,57,93,12.64,RU,1718008746
485,mogadishu,2.0371,45.3438,85.87,70,40,17.27,SO,1718008746
486,itaituba,-4.2761,-55.9836,74.25,91,87,0.96,BR,1718008746
487,rajapur,25.3833,81.15,115.3,10,4,7.56,IN,1718008746
488,gurupi,-11.7292,-49.0686,67.66,59,92,6.4,BR,1718008747
489,taltal,-25.4,-70.4833,59.04,73,53,2.33,CL,1718008747
490,villa gesell,-37.2639,-56.973,49.05,91,100,11.32,AR,1718008747
491,osorno,-40.5667,-73.15,53.91,82,100,14.97,CL,1718008652
492,teghra,25.4833,85.95,115.18,10,0,10.87,IN,1718008747
493,suances,43.4334,-4.0434,62.98,77,75,4.61,ES,1718008747
494,yanam,16.7333,82.2167,96.42,45,66,9.4,IN,1718008747
495,tsuruga,35.6455,136.0558,74.64,80,100,3.0,JP,1718008747
496,touros,-5.1989,-35.4608,75.13,87,28,12.06,BR,1718008747
497,sopur,34.3,74.4667,82.27,24,0,11.88,IN,1718008748
498,ban nong wua so,17.2675,103.2247,88.95,65,100,7.23,TH,1718008748
499,zhangye,38.9342,100.4517,88.2,9,100,10.16,CN,1718008748
500,kyadabek,40.5656,45.8161,66.24,76,8,10.18,AZ,1718008748
501,cannonvale,-20.2833,148.7,69.19,65,4,9.08,AU,1718008748
502,vordingborg,55.008,11.9106,57.02,70,56,19.84,DK,1718008458
503,renqiu,38.6989,116.0936,105.94,10,31,9.1,CN,1718008748
504,rudsar,37.1376,50.288,80.58,62,92,11.68,IR,1718008748
505,wau,7.7029,27.9953,91.42,41,42,6.02,SS,1718008749
506,lepsy,46.235,78.9456,95.02,18,2,12.03,KZ,1718008749
507,mossel bay,-34.1831,22.146,69.73,52,0,5.35,ZA,1718008749
508,tsiombe,-25.3,45.4833,70.02,56,59,16.64,MG,1718008749
509,wotho,10.1657,166.0102,83.55,82,15,15.64,MH,1718008749
510,nouadhibou,20.931,-17.0347,69.78,83,53,18.41,MR,1718008749
511,vikhorevka,56.1201,101.1636,65.79,42,78,8.79,RU,1718008749
512,mashhad,36.297,59.6062,96.94,23,0,4.61,IR,1718008749
513,usogorsk,63.4106,48.6872,60.67,51,18,6.31,RU,1718008749
514,susuman,62.7833,148.1667,50.99,36,89,1.99,RU,1718008750
515,daud khel,32.875,71.5701,108.28,9,0,2.82,PK,1718008750
516,ixtapa,20.7,-105.2,71.64,88,7,2.3,MX,1718008750
517,kismayo,-0.3582,42.5454,83.77,64,13,19.15,SO,1718008750
518,al jadid,27.05,14.4,97.16,7,0,3.65,LY,1718008750
519,charters towers,-20.1,146.2667,65.1,35,18,9.86,AU,1718008750
520,saldanha,-33.0117,17.9442,69.85,42,0,15.55,ZA,1718008750
521,nokia,61.4667,23.5,57.85,62,75,11.5,FI,1718008750
522,sampit,-2.5333,112.95,81.01,94,90,3.78,ID,1718008751
523,ulysses,37.5814,-101.3552,62.89,100,0,8.05,US,1718008751
524,terbanggi besar,-4.8667,105.2333,87.57,65,100,3.87,ID,1718008751
525,northam,51.0333,-4.2167,56.61,72,67,18.14,GB,1718008751
526,bunde,53.1833,7.2667,55.36,88,100,4.29,DE,1718008751
527,byron bay,-28.65,153.6167,54.72,70,0,10.22,AU,1718008751
528,kuressaare,58.2481,22.5039,59.95,72,75,12.66,EE,1718008751
529,agat village,13.3886,144.6585,86.95,79,0,13.8,GU,1718008752
530,san juan de miraflores,-12.1629,-76.9635,62.87,89,31,6.46,PE,1718008752
531,suphan buri,14.4742,100.1222,78.21,90,100,12.73,TH,1718008752
532,sa'dah,16.9402,43.7639,89.67,14,6,4.94,YE,1718008752
533,shalqar,47.8333,59.6,84.9,27,100,11.77,KZ,1718008752
534,hatillo,18.4863,-66.8254,79.32,86,100,6.4,PR,1718008752
535,kidal,18.4411,1.4078,103.23,14,38,11.95,ML,1718008752
536,la cocha,-27.7773,-65.5704,58.08,72,0,5.03,AR,1718008752
537,clovis,36.8252,-119.7029,71.49,57,0,6.91,US,1718008686
538,ondjiva,-17.0667,15.7333,76.35,26,41,12.66,AO,1718008753
539,belmonte,-15.8631,-38.8828,75.09,69,98,5.55,BR,1718008753
540,ivdel',60.6911,60.4206,71.19,60,48,5.99,RU,1718008753
541,suntar,62.1444,117.6319,75.99,38,23,5.17,RU,1718008753
542,sennoy,52.1509,46.9631,81.1,49,72,7.49,RU,1718008753
543,gemena,3.25,19.7667,76.78,82,100,4.65,CD,1718008753
544,newport,51.5877,-2.9984,60.12,63,8,16.2,GB,1718008753
545,leticia,-4.2153,-69.9406,71.65,100,75,2.3,CO,1718008753
546,puerto penasco,31.3167,-113.5333,77.92,81,67,10.0,MX,1718008754
547,luderitz,-26.6481,15.1594,76.08,32,21,10.31,NA,1718008754
548,turkmenbasy,40.0222,52.9552,95.77,23,0,13.8,TM,1718008754
549,castillos,-34.1667,-53.8333,56.52,88,100,8.55,UY,1718008754
550,midvagur,62.0511,-7.1939,40.03,87,100,21.85,FO,1718008754
551,bouar,5.934,15.596,66.6,93,100,5.39,CF,1718008754
552,la'ie,21.6477,-157.9253,80.56,80,99,8.99,US,1718008754
553,pyay,18.8167,95.2167,98.33,43,54,10.63,MM,1718008754
554,angaur state,6.906,134.13,84.72,69,69,1.99,PW,1718008754
555,lucera,41.5082,15.3351,82.22,36,0,13.8,IT,1718008755
556,peace river,56.2501,-117.286,48.65,97,40,2.3,CA,1718008477
557,walvis bay,-22.9575,14.5053,63.09,43,90,6.85,NA,1718008755
558,gwadar,25.1216,62.3254,88.41,72,0,16.13,PK,1718008755
